pc_time,mono_time,elapsed_sec,kind,phase,message,alt_m,acc_x,acc_y,acc_z,acc_norm,mag_x,mag_y,mag_z,euler_heading,euler_roll,euler_pitch,drop_subphase,drop_acc_med,drop_dalt_med,drop_cond,drop_consec,drop_confirmed,drop_armed,drop_baseline_alt,drop_max_alt,gps_lat,gps_lon,gps_fixq,gps_nsat,gps_hdop,gps_dist_m,gps_goal_bearing_deg,gps_heading_deg,gps_err_deg,servo_fwd_cmd,servo_turn_cmd,servo_us18,servo_us12,recovery_mode,recovery_busy,camera_red_ratio,camera_status
2026-03-07T14:26:29,184.284,,EVENT,,=== CanSat Integrated Program Start ===,,,,,,,,,,,,,,,,,,,,,,,,,,,,,,,,,,,,
2026-03-07T14:26:30,185.289,0.0,EVENT,DROP,Phase: DROP,,,,,,,,,,,,,,,,,,,,,,,,,,,,,,,,,,,,
2026-03-07T14:26:30,185.289,0.0,EVENT,DROP,[TIMER] force_gps=900s force_done=1500s,,,,,,,,,,,,,,,,,,,,,,,,,,,,,,,,,,,,
2026-03-07T14:26:30,185.356,0.0017986910000047374,ROW,DROP,warmup,-69.1806031167179,-0.37,-2.48,9.57,9.893037956057785,23.25,31.0625,-107.375,0.3125,0.125,0.1875,WARMUP,,,,0,False,False,-69.1806031167179,-69.1806031167179,,,0,0,,,,,,0,0,1490,1490,,False,,
2026-03-07T14:26:30,185.507,0.16775186999998937,ROW,DROP,warmup,-69.05863241661079,-0.56,-2.54,9.4,9.753214854600508,24.75,33.375,-109.0,0.625,-2.25,14.4375,WARMUP,,,,0,False,False,-69.1806031167179,-69.05863241661079,,,0,0,,,,,,0,0,1490,1490,,False,,
2026-03-07T14:26:31,185.657,0.31873630300000855,ROW,DROP,warmup,-69.14758078373013,-0.41000000000000003,-2.38,9.76,10.054357264390399,20.25,32.5625,-107.0625,0.125,-2.5,14.1875,WARMUP,,,,0,False,False,-69.1806031167179,-69.05863241661079,,,0,0,,,,,,0,0,1490,1490,,False,,
2026-03-07T14:26:31,185.811,0.4689056340000093,ROW,DROP,warmup,-69.35530907663055,-0.77,-2.29,9.32,9.628052762630666,16.1875,19.75,-66.375,0.6875,-2.625,14.1875,WARMUP,9.753214854600508,,,0,False,False,-69.1806031167179,-69.05863241661079,,,0,0,,,,,,0,0,1490,1490,,False,,
2026-03-07T14:26:31,185.965,0.6229931539999995,ROW,DROP,warmup,-69.15303382141862,-0.66,-2.42,9.63,9.951326544737642,5.5,20.5625,-65.375,0.125,-3.1875,14.3125,WARMUP,9.852270699669074,,,0,False,False,-69.1806031167179,-69.05863241661079,,,0,0,,,,,,0,0,1490,1490,,False,,
2026-03-07T14:26:31,186.117,0.776952456999993,ROW,DROP,warmup,-69.02197230483665,-0.63,-2.61,9.56,9.929884188649936,16.0,20.0625,-63.375,0.9375,-2.8125,14.5625,WARMUP,9.929884188649936,,,0,False,False,-69.1806031167179,-69.02197230483665,,,0,0,,,,,,0,0,1490,1490,,False,,
2026-03-07T14:26:31,186.276,0.928815955999994,ROW,DROP,warmup,-69.1047138947666,-0.61,-2.18,9.4,9.66873828376795,10.5,22.375,-65.0625,1.0,-3.0,13.5,WARMUP,9.841549521625222,,,0,False,False,-69.1806031167179,-69.02197230483665,,,0,0,,,,,,0,0,1490,1490,,False,,
2026-03-07T14:26:31,186.427,1.0873280829999885,ROW,DROP,warmup,-69.1750924610294,-0.5700000000000001,-2.15,9.74,9.990745717913153,17.0625,18.5625,-65.75,1.75,-2.875,13.375,WARMUP,9.929884188649936,,,0,False,False,-69.1806031167179,-69.02197230483665,,,0,0,,,,,,0,0,1490,1490,,False,,
2026-03-07T14:26:31,186.576,1.238383945999999,ROW,DROP,warmup,-68.94462697497138,-0.65,-2.48,9.5,9.839862803921609,16.0625,19.0625,-64.5625,3.0625,-2.5,14.1875,WARMUP,9.884873496285772,,,0,False,False,-69.1806031167179,-68.94462697497138,,,0,0,,,,,,0,0,1490,1490,,False,,
2026-03-07T14:26:32,186.725,1.3881683379999856,ROW,DROP,warmup,-68.78892389401578,-0.5700000000000001,-2.48,9.24,9.58399186143227,16.1875,16.0,-65.0625,2.625,-3.0,13.875,WARMUP,9.839862803921609,,,0,False,False,-69.1806031167179,-68.78892389401578,,,0,0,,,,,,0,0,1490,1490,,False,,
2026-03-07T14:26:32,186.882,1.5370633670000018,ROW,DROP,warmup,-68.94376560880471,-0.68,-2.2800000000000002,9.39,9.68673835715614,16.6875,15.875,-66.0,2.9375,-3.125,13.375,WARMUP,9.796538829261058,,,0,False,False,-69.1806031167179,-68.78892389401578,,,0,0,99.99,,,,,0,0,1490,1490,,False,,
2026-03-07T14:26:32,187.033,1.6939788969999938,EVENT,DROP,[DROP] ARM_WAIT alt=-69.18 acc_med=9.839862803921609 dalt_med=-0.070 baseline=-69.18 max_alt=-68.79,,,,,,,,,,,,,,,,,,,,,,,,,,,,,,,,,,,,
2026-03-07T14:26:32,187.033,1.6939788969999938,ROW,DROP,arm_wait,-69.18134048555677,-0.5700000000000001,-2.06,9.69,9.922933034138646,15.875,15.0625,-66.1875,4.0,-3.0625,13.0625,ARM_WAIT,9.839862803921609,-0.07037856626278938,False,0,False,False,-69.1806031167179,-68.78892389401578,,,0,0,99.99,,,,,0,0,1490,1490,,False,,
2026-03-07T14:26:32,187.183,1.844979472999995,EVENT,DROP,[DROP] ARM_WAIT alt=-69.16 acc_med=9.922933034138646 dalt_med=-0.070 baseline=-69.18 max_alt=-68.79,,,,,,,,,,,,,,,,,,,,,,,,,,,,,,,,,,,,
2026-03-07T14:26:32,187.183,1.844979472999995,ROW,DROP,arm_wait,-69.16372800746919,-0.93,-2.34,-317.96,317.96997043746126,15.5,13.875,-66.75,4.4375,-3.0625,13.125,ARM_WAIT,9.922933034138646,-0.07037856626278938,False,0,False,False,-69.1806031167179,-68.78892389401578,,,0,0,99.99,,,,,0,0,1490,1490,,False,,
2026-03-07T14:26:32,187.332,1.9948909759999935,EVENT,DROP,[DROP] ARM_WAIT alt=-69.44 acc_med=9.839862803921609 dalt_med=-0.070 baseline=-69.18 max_alt=-68.79,,,,,,,,,,,,,,,,,,,,,,,,,,,,,,,,,,,,
2026-03-07T14:26:32,187.332,1.9948909759999935,ROW,DROP,arm_wait,-69.44266822641663,-0.53,-2.08,9.51,9.749225610272848,17.1875,12.6875,-67.375,5.25,-2.5,12.375,ARM_WAIT,9.839862803921609,-0.07037856626278938,False,0,False,False,-69.1806031167179,-68.78892389401578,,,0,0,99.99,,,,,0,0,1490,1490,,False,,
2026-03-07T14:26:32,187.482,2.1442032610000012,EVENT,DROP,[DROP] ARM_WAIT alt=-69.29 acc_med=9.839862803921609 dalt_med=0.018 baseline=-69.18 max_alt=-68.79,,,,,,,,,,,,,,,,,,,,,,,,,,,,,,,,,,,,
2026-03-07T14:26:32,187.482,2.1442032610000012,ROW,DROP,arm_wait,-69.28869021401783,-0.49,-1.77,9.47,9.646444941013245,15.25,11.6875,-67.375,5.75,-2.5,11.6875,ARM_WAIT,9.839862803921609,0.01761247808758526,False,0,False,False,-69.1806031167179,-68.78892389401578,,,0,0,99.99,,,,,0,0,1490,1490,,False,,
2026-03-07T14:26:33,187.634,2.293760160000005,EVENT,DROP,[DROP] ARM_WAIT alt=-69.51 acc_med=9.839862803921609 dalt_med=-0.155 baseline=-69.18 max_alt=-68.79,,,,,,,,,,,,,,,,,,,,,,,,,,,,,,,,,,,,
2026-03-07T14:26:33,187.635,2.293760160000005,ROW,DROP,arm_wait,-69.50691848317945,-1.04,-2.08,9.59,9.867932914242981,16.5,12.0,-66.0625,6.625,-3.25,12.3125,ARM_WAIT,9.839862803921609,-0.1548417147889296,False,0,False,False,-69.1806031167179,-68.78892389401578,,,0,0,99.99,,,,,0,0,1490,1490,,False,,
2026-03-07T14:26:33,187.792,2.4466531079999925,EVENT,DROP,[DROP] ARM_WAIT alt=-68.98 acc_med=9.839862803921609 dalt_med=-0.155 baseline=-69.18 max_alt=-68.79,,,,,,,,,,,,,,,,,,,,,,,,,,,,,,,,,,,,
2026-03-07T14:26:33,187.792,2.4466531079999925,ROW,DROP,arm_wait,-68.97986764925119,-0.75,-2.27,9.71,9.999974999968751,14.5625,11.1875,-65.5625,7.125,-3.75,12.8125,ARM_WAIT,9.839862803921609,-0.1548417147889296,False,0,False,False,-69.1806031167179,-68.78892389401578,,,0,0,99.99,,,,,0,0,1490,1490,,False,,
2026-03-07T14:26:33,187.948,2.6037617689999877,EVENT,DROP,[DROP] ARM_WAIT alt=-69.17 acc_med=9.839862803921609 dalt_med=-0.187 baseline=-69.18 max_alt=-68.79,,,,,,,,,,,,,,,,,,,,,,,,,,,,,,,,,,,,
2026-03-07T14:26:33,187.948,2.6037617689999877,ROW,DROP,arm_wait,-69.16732961109841,-0.97,-2.0300000000000002,9.44,9.704401063435084,15.25,10.875,-66.25,7.5,-4.0,12.5,ARM_WAIT,9.839862803921609,-0.18746196184721953,False,0,False,False,-69.1806031167179,-68.78892389401578,,,0,0,99.99,,,,,0,0,1490,1490,,False,,
2026-03-07T14:26:33,188.103,2.7598703079999893,EVENT,DROP,[DROP] ARM_WAIT alt=-69.27 acc_med=9.769836231994885 dalt_med=-0.099 baseline=-69.18 max_alt=-68.79,,,,,,,,,,,,,,,,,,,,,,,,,,,,,,,,,,,,
2026-03-07T14:26:33,188.103,2.7598703079999893,ROW,DROP,arm_wait,-69.26674122742133,-0.9,-2.14,9.49,9.769836231994885,14.375,10.25,-65.375,7.875,-4.5,12.875,ARM_WAIT,9.769836231994885,-0.09941161632292506,False,0,False,False,-69.1806031167179,-68.78892389401578,,,0,0,99.99,,,,,0,0,1490,1490,,False,,
2026-03-07T14:26:33,188.260,2.9148897720000093,EVENT,DROP,[DROP] ARM_WAIT alt=-69.08 acc_med=9.769836231994885 dalt_med=-0.099 baseline=-69.18 max_alt=-68.79,,,,,,,,,,,,,,,,,,,,,,,,,,,,,,,,,,,,
2026-03-07T14:26:33,188.260,2.9148897720000093,ROW,DROP,arm_wait,-69.08373554242141,-1.04,-2.37,9.66,10.000704975150501,14.0,11.25,-67.75,8.125,-4.6875,13.5625,ARM_WAIT,9.769836231994885,-0.09941161632292506,False,0,False,False,-69.1806031167179,-68.78892389401578,,,0,0,99.99,,,,,0,0,1490,1490,,False,,
2026-03-07T14:26:33,188.425,3.072242474999996,EVENT,DROP,[DROP] ARM_WAIT alt=-69.52 acc_med=9.867932914242981 dalt_med=-0.099 baseline=-69.18 max_alt=-68.79,,,,,,,,,,,,,,,,,,,,,,,,,,,,,,,,,,,,
2026-03-07T14:26:33,188.427,3.072242474999996,ROW,DROP,arm_wait,-69.51571875108907,-0.81,-2.48,9.52,9.871013119229454,13.0,10.75,-65.5625,9.375,-4.375,14.25,ARM_WAIT,9.867932914242981,-0.09941161632292506,False,0,False,False,-69.1806031167179,-68.78892389401578,,,0,0,99.99,,,,,0,0,1490,1490,,False,,
2026-03-07T14:26:33,188.585,3.238699091000001,EVENT,DROP,[DROP] ARM_WAIT alt=-69.22 acc_med=9.867932914242981 dalt_med=-0.099 baseline=-69.18 max_alt=-68.79,,,,,,,,,,,,,,,,,,,,,,,,,,,,,,,,,,,,
2026-03-07T14:26:33,188.586,3.238699091000001,ROW,DROP,arm_wait,-69.21922290437016,-1.31,-2.56,9.43,9.858732170010503,14.25,9.75,-67.0625,9.6875,-4.9375,14.3125,ARM_WAIT,9.867932914242981,-0.09941161632292506,False,0,False,False,-69.1806031167179,-68.78892389401578,,,0,0,99.99,,,,,0,0,1490,1490,,False,,
2026-03-07T14:26:34,188.740,3.397984180000009,EVENT,DROP,[DROP] ARM_WAIT alt=-69.22 acc_med=9.858732170010503 dalt_med=0.000 baseline=-69.18 max_alt=-68.79,,,,,,,,,,,,,,,,,,,,,,,,,,,,,,,,,,,,
2026-03-07T14:26:34,188.742,3.397984180000009,ROW,DROP,arm_wait,-69.21922290437016,-1.1,-2.32,9.48,9.82154773953678,12.375,8.875,-67.6875,10.5,-4.8125,14.25,ARM_WAIT,9.858732170010503,0.0,False,0,False,False,-69.1806031167179,-68.78892389401578,,,0,0,99.99,,,,,0,0,1490,1490,,False,,
2026-03-07T14:26:34,188.892,3.5533015469999896,EVENT,DROP,[DROP] ARM_WAIT alt=-69.10 acc_med=9.82154773953678 dalt_med=0.000 baseline=-69.18 max_alt=-68.79,,,,,,,,,,,,,,,,,,,,,,,,,,,,,,,,,,,,
2026-03-07T14:26:34,188.892,3.5533015469999896,ROW,DROP,arm_wait,-69.10485287869886,-0.04,-1.95,9.43,9.629589814732505,12.375,9.0625,-64.0,11.8125,-4.3125,14.6875,ARM_WAIT,9.82154773953678,0.0,False,0,False,False,-69.1806031167179,-68.78892389401578,,,0,0,99.99,,,,,0,0,1490,1490,,False,,
2026-03-07T14:26:34,189.040,3.7041026230000114,EVENT,DROP,[DROP] ARM_WAIT alt=-69.24 acc_med=9.858732170010503 dalt_med=0.000 baseline=-69.18 max_alt=-68.79,,,,,,,,,,,,,,,,,,,,,,,,,,,,,,,,,,,,
2026-03-07T14:26:34,189.041,3.7041026230000114,ROW,DROP,arm_wait,-69.24120877045665,-0.23,-2.05,9.73,9.946270657889821,12.5,8.0625,-67.0,12.1875,-3.8125,14.6875,ARM_WAIT,9.858732170010503,0.0,False,0,False,False,-69.1806031167179,-68.78892389401578,,,0,0,99.99,,,,,0,0,1490,1490,,False,,
2026-03-07T14:26:34,189.189,3.8523064160000047,EVENT,DROP,[DROP] ARM_WAIT alt=-69.13 acc_med=9.867932914242981 dalt_med=0.114 baseline=-69.18 max_alt=-68.79,,,,,,,,,,,,,,,,,,,,,,,,,,,,,,,,,,,,
2026-03-07T14:26:34,189.191,3.8523064160000047,ROW,DROP,arm_wait,-69.12594945704558,-1.82,-2.71,12.1,12.532617444093631,11.1875,7.5625,-64.0625,13.125,-3.8125,15.375,ARM_WAIT,9.867932914242981,0.11437002567129184,False,0,False,False,-69.1806031167179,-68.78892389401578,,,0,0,99.99,,,,,0,0,1490,1490,,False,,
2026-03-07T14:26:34,189.341,4.002316100000002,EVENT,DROP,[DROP] ARM_WAIT alt=-69.34 acc_med=9.871013119229454 dalt_med=0.000 baseline=-69.18 max_alt=-68.79,,,,,,,,,,,,,,,,,,,,,,,,,,,,,,,,,,,,
2026-03-07T14:26:34,189.341,4.002316100000002,ROW,DROP,arm_wait,-69.33712569582704,-1.55,-2.09,10.86,11.16737211702019,9.25,8.25,-65.375,-2032.5,-0.75,15.625,ARM_WAIT,9.871013119229454,0.0,False,0,False,False,-69.1806031167179,-68.78892389401578,,,0,0,99.99,,,,,0,0,1490,1490,,False,,
2026-03-07T14:26:34,189.497,4.1527617380000095,EVENT,DROP,[DROP] ARM_WAIT alt=-68.79 acc_med=9.858732170010503 dalt_med=0.114 baseline=-69.18 max_alt=-68.79,,,,,,,,,,,,,,,,,,,,,,,,,,,,,,,,,,,,
2026-03-07T14:26:34,189.497,4.1527617380000095,ROW,DROP,arm_wait,-68.78894066634098,-0.45,-2.23,7.59,7.923603977988805,5.5625,2.1875,-60.875,21.5625,4.1875,13.4375,ARM_WAIT,9.858732170010503,0.11437002567129184,False,0,False,False,-69.1806031167179,-68.78892389401578,,,0,0,99.99,,,,,0,0,1490,1490,,False,,
2026-03-07T14:26:35,189.649,4.309141516000011,EVENT,DROP,[DROP] ARM_WAIT alt=-69.00 acc_med=9.858732170010503 dalt_med=0.000 baseline=-69.18 max_alt=-68.79,,,,,,,,,,,,,,,,,,,,,,,,,,,,,,,,,,,,
2026-03-07T14:26:35,189.649,4.309141516000011,ROW,DROP,arm_wait,-69.00012177224895,-0.44,-1.83,9.040000000000001,9.233856182549088,-2.25,-10.6875,-58.0,28.0625,6.875,10.125,ARM_WAIT,9.858732170010503,0.0,False,0,False,False,-69.1806031167179,-68.78892389401578,,,0,0,99.99,,,,,0,0,1490,1490,,False,,
2026-03-07T14:26:35,189.799,4.460788508000007,EVENT,DROP,[DROP] ARM_WAIT alt=-69.02 acc_med=9.858732170010503 dalt_med=-0.015 baseline=-69.18 max_alt=-68.79,,,,,,,,,,,,,,,,,,,,,,,,,,,,,,,,,,,,
2026-03-07T14:26:35,189.799,4.460788508000007,ROW,DROP,arm_wait,-69.01507936227577,-0.2,-2.54,8.700000000000001,9.065406775208713,-5.0625,-20.1875,-57.75,37.3125,7.3125,9.0,ARM_WAIT,9.858732170010503,-0.014957590026824619,False,0,False,False,-69.1806031167179,-68.78892389401578,,,0,0,99.99,,,,,0,0,1490,1490,,False,,
2026-03-07T14:26:35,189.951,4.611210287999995,EVENT,DROP,[DROP] ARM_WAIT alt=-68.79 acc_med=9.82154773953678 dalt_med=-0.015 baseline=-69.18 max_alt=-68.79,,,,,,,,,,,,,,,,,,,,,,,,,,,,,,,,,,,,
2026-03-07T14:26:35,189.952,4.611210287999995,ROW,DROP,arm_wait,-68.78894066634098,-1.2,-4.34,8.3,9.442753835613846,-6.1875,-25.375,-59.6875,49.6875,7.9375,9.375,ARM_WAIT,9.82154773953678,-0.014957590026824619,False,0,False,False,-69.1806031167179,-68.78892389401578,,,0,0,99.99,,,,,0,0,1490,1490,,False,,
2026-03-07T14:26:35,190.111,4.763360884000008,EVENT,DROP,[DROP] ARM_WAIT alt=-68.70 acc_med=9.770593636008 dalt_med=0.091 baseline=-69.18 max_alt=-68.70,,,,,,,,,,,,,,,,,,,,,,,,,,,,,,,,,,,,
2026-03-07T14:26:35,190.112,4.763360884000008,ROW,DROP,arm_wait,-68.69746066282407,0.2,-3.02,9.290000000000001,9.770593636008,-4.6875,-27.1875,-58.0625,60.5,8.4375,9.0,ARM_WAIT,9.770593636008,0.09148000351690655,False,0,False,False,-69.1806031167179,-68.69746066282407,,,0,0,99.99,,,,,0,0,1490,1490,,False,,
2026-03-07T14:26:35,190.266,4.923522077000001,EVENT,DROP,[DROP] ARM_WAIT alt=-68.90 acc_med=9.770593636008 dalt_med=-0.015 baseline=-69.18 max_alt=-68.70,,,,,,,,,,,,,,,,,,,,,,,,,,,,,,,,,,,,
2026-03-07T14:26:35,190.268,4.923522077000001,ROW,DROP,arm_wait,-68.90245101736656,-0.97,-3.35,9.19,9.829521860192386,-2.0,-26.0,-60.1875,60.0,2.25,13.8125,ARM_WAIT,9.770593636008,-0.014957590026824619,False,0,False,False,-69.1806031167179,-68.69746066282407,,,0,0,99.99,,,,,0,0,1490,1490,,False,,
2026-03-07T14:26:35,190.420,5.079766713999987,EVENT,DROP,[DROP] ARM_WAIT alt=-68.90 acc_med=9.770593636008 dalt_med=0.001 baseline=-69.18 max_alt=-68.70,,,,,,,,,,,,,,,,,,,,,,,,,,,,,,,,,,,,
2026-03-07T14:26:35,190.422,5.079766713999987,ROW,DROP,arm_wait,-68.90157110210144,-2.66,-3.0500000000000003,10.09,10.871347662548558,-3.375,-20.25,-56.0625,49.0625,-7.8125,18.875,ARM_WAIT,9.770593636008,0.0008799152651164377,False,0,False,False,-69.1806031167179,-68.69746066282407,,,0,0,99.99,,,,,0,0,1490,1490,,False,,
2026-03-07T14:26:35,190.579,5.233553895999989,EVENT,DROP,[DROP] ARM_WAIT alt=-68.89 acc_med=9.829521860192386 dalt_med=0.001 baseline=-69.18 max_alt=-68.70,,,,,,,,,,,,,,,,,,,,,,,,,,,,,,,,,,,,
2026-03-07T14:26:35,190.580,5.233553895999989,ROW,DROP,arm_wait,-68.8866114069113,-3.96,-3.09,8.73,10.07187172277328,-4.0,-16.25,-55.5,37.9375,-15.75,23.4375,ARM_WAIT,9.829521860192386,0.0008799152651164377,False,0,False,False,-69.1806031167179,-68.69746066282407,,,0,0,99.99,,,,,0,0,1490,1490,,False,,
2026-03-07T14:26:36,190.732,5.392002345999998,EVENT,DROP,[DROP] ARM_WAIT alt=-68.75 acc_med=9.770593636008 dalt_med=0.015 baseline=-69.18 max_alt=-68.70,,,,,,,,,,,,,,,,,,,,,,,,,,,,,,,,,,,,
2026-03-07T14:26:36,190.732,5.392002345999998,ROW,DROP,arm_wait,-68.74670395085168,-3.18,-3.0100000000000002,8.0,9.119895832738441,-11.1875,-11.5625,-51.875,31.125,-17.0625,26.0625,ARM_WAIT,9.770593636008,0.014959695190142952,False,0,False,False,-69.1806031167179,-68.69746066282407,,,0,0,99.99,,,,,0,0,1490,1490,,False,,
2026-03-07T14:26:36,190.882,5.543798637000009,EVENT,DROP,[DROP] ARM_WAIT alt=-68.97 acc_med=9.442753835613846 dalt_med=0.015 baseline=-69.18 max_alt=-68.70,,,,,,,,,,,,,,,,,,,,,,,,,,,,,,,,,,,,
2026-03-07T14:26:36,190.883,5.543798637000009,ROW,DROP,arm_wait,-68.96664740734772,-2.32,-2.88,8.370000000000001,9.150612001390947,-8.0625,-11.1875,-49.375,28.1875,-15.5,26.5,ARM_WAIT,9.442753835613846,0.014959695190142952,False,0,False,False,-69.1806031167179,-68.69746066282407,,,0,0,99.99,,,,,0,0,1490,1490,,False,,
2026-03-07T14:26:36,191.034,5.694520535000009,EVENT,DROP,[DROP] ARM_WAIT alt=-68.87 acc_med=9.442753835613846 dalt_med=0.015 baseline=-69.18 max_alt=-68.70,,,,,,,,,,,,,,,,,,,,,,,,,,,,,,,,,,,,
2026-03-07T14:26:36,191.034,5.694520535000009,ROW,DROP,arm_wait,-68.86809407429938,-3.13,-1.74,9.700000000000001,10.339946808373824,-21.5625,-8.0625,-50.5,22.0,-18.25,29.5625,ARM_WAIT,9.442753835613846,0.014959695190142952,False,0,False,False,-69.1806031167179,-68.69746066282407,,,0,0,99.99,,,,,0,0,1490,1490,,False,,
2026-03-07T14:26:36,191.184,5.8458318129999896,EVENT,DROP,[DROP] ARM_WAIT alt=-69.19 acc_med=9.770593636008 dalt_med=0.001 baseline=-69.18 max_alt=-68.70,,,,,,,,,,,,,,,,,,,,,,,,,,,,,,,,,,,,
2026-03-07T14:26:36,191.184,5.8458318129999896,ROW,DROP,arm_wait,-69.191027612348,-4.4,-5.0200000000000005,10.700000000000001,12.611518544568693,-9.25,-6.375,-50.25,21.5625,-19.625,29.0625,ARM_WAIT,9.770593636008,0.0008799152651164377,False,0,False,False,-69.1806031167179,-68.69746066282407,,,0,0,99.99,,,,,0,0,1490,1490,,False,,
2026-03-07T14:26:36,191.342,5.995730756,EVENT,DROP,[DROP] ARM_WAIT alt=-69.31 acc_med=9.829521860192386 dalt_med=0.001 baseline=-69.18 max_alt=-68.70,,,,,,,,,,,,,,,,,,,,,,,,,,,,,,,,,,,,
2026-03-07T14:26:36,191.343,5.995730756,ROW,DROP,arm_wait,-69.31329950472941,-0.45,-7.55,7.79,10.857674705018566,-9.6875,-11.375,-48.5,41.875,-5.125,30.5,ARM_WAIT,9.829521860192386,0.0008799152651164377,False,0,False,False,-69.1806031167179,-68.69746066282407,,,0,0,99.99,,,,,0,0,1490,1490,,False,,
2026-03-07T14:26:36,191.495,6.154246822000005,EVENT,DROP,[DROP] ARM_WAIT alt=-68.59 acc_med=10.07187172277328 dalt_med=0.015 baseline=-69.18 max_alt=-68.59,,,,,,,,,,,,,,,,,,,,,,,,,,,,,,,,,,,,
2026-03-07T14:26:36,191.495,6.154246822000005,ROW,DROP,arm_wait,-68.58739338304264,-2.56,-7.41,7.54,10.877191733163482,-7.875,-13.5625,-48.5625,52.75,-3.625,29.75,ARM_WAIT,10.07187172277328,0.014959695190142952,False,0,False,False,-69.1806031167179,-68.58739338304264,,,0,0,99.99,,,,,0,0,1490,1490,,False,,
2026-03-07T14:26:37,191.644,6.306828101999997,EVENT,DROP,[DROP] ARM_WAIT alt=-68.64 acc_med=10.10020296825762 dalt_med=-0.055 baseline=-69.18 max_alt=-68.59,,,,,,,,,,,,,,,,,,,,,,,,,,,,,,,,,,,,
2026-03-07T14:26:37,191.644,6.306828101999997,ROW,DROP,arm_wait,-68.64282594424726,-4.21,-5.0,7.7,10.10020296825762,-0.0625,-21.0,-49.0625,58.125,-6.625,23.625,ARM_WAIT,10.10020296825762,-0.055432561204625586,False,0,False,False,-69.1806031167179,-68.58739338304264,,,0,0,99.99,,,,,0,0,1490,1490,,False,,
2026-03-07T14:26:37,191.792,6.456073271999998,EVENT,DROP,[DROP] ARM_WAIT alt=-69.28 acc_med=10.10020296825762 dalt_med=-0.122 baseline=-69.18 max_alt=-68.59,,,,,,,,,,,,,,,,,,,,,,,,,,,,,,,,,,,,
2026-03-07T14:26:37,191.793,6.456073271999998,ROW,DROP,arm_wait,-69.28337451624412,-4.55,-3.69,8.17,10.053233310731429,3.375,-24.5625,-48.0625,62.875,-6.625,18.0625,ARM_WAIT,10.10020296825762,-0.12227189238141989,False,0,False,False,-69.1806031167179,-68.58739338304264,,,0,0,99.99,,,,,0,0,1490,1490,,False,,
2026-03-07T14:26:37,191.946,6.604471789999991,EVENT,DROP,[DROP] ARM_WAIT alt=-69.04 acc_med=10.339946808373824 dalt_med=-0.055 baseline=-69.18 max_alt=-68.59,,,,,,,,,,,,,,,,,,,,,,,,,,,,,,,,,,,,
2026-03-07T14:26:37,191.947,6.604471789999991,ROW,DROP,arm_wait,-69.0352762683559,-3.21,-4.67,8.71,10.391203010238998,4.0625,-26.25,-48.0625,65.0625,-7.75,15.5625,ARM_WAIT,10.339946808373824,-0.055432561204625586,False,0,False,False,-69.1806031167179,-68.58739338304264,,,0,0,99.99,,,,,0,0,1490,1490,,False,,
2026-03-07T14:26:37,192.097,6.758599909999987,EVENT,DROP,[DROP] ARM_WAIT alt=-69.21 acc_med=10.10020296825762 dalt_med=-0.122 baseline=-69.18 max_alt=-68.59,,,,,,,,,,,,,,,,,,,,,,,,,,,,,,,,,,,,
2026-03-07T14:26:37,192.097,6.758599909999987,ROW,DROP,arm_wait,-69.21297860730942,-1.84,-3.84,8.93,9.893235062405017,3.6875,-28.5,-43.75,64.75,-8.0625,14.9375,ARM_WAIT,10.10020296825762,-0.12227189238141989,False,0,False,False,-69.1806031167179,-68.58739338304264,,,0,0,99.99,,,,,0,0,1490,1490,,False,,
2026-03-07T14:26:37,192.254,6.908984991000011,EVENT,DROP,[DROP] ARM_WAIT alt=-69.26 acc_med=10.339946808373824 dalt_med=-0.055 baseline=-69.18 max_alt=-68.59,,,,,,,,,,,,,,,,,,,,,,,,,,,,,,,,,,,,
2026-03-07T14:26:37,192.255,6.908984991000011,ROW,DROP,arm_wait,-69.25698387987069,-0.45,-4.79,10.05,11.142221502016552,-0.375,-26.875,-43.875,60.4375,-3.75,16.8125,ARM_WAIT,10.339946808373824,-0.055432561204625586,False,0,False,False,-69.1806031167179,-68.58739338304264,,,0,0,99.99,,,,,0,0,1490,1490,,False,,
2026-03-07T14:26:37,192.406,7.066467848000002,EVENT,DROP,[DROP] ARM_WAIT alt=-69.27 acc_med=10.391203010238998 dalt_med=-0.044 baseline=-69.18 max_alt=-68.59,,,,,,,,,,,,,,,,,,,,,,,,,,,,,,,,,,,,
2026-03-07T14:26:37,192.406,7.066467848000002,ROW,DROP,arm_wait,-69.27106281354308,-2.2800000000000002,-3.99,9.950000000000001,10.959972627703047,-2.0,-25.0,-45.5,54.25,-5.125,18.375,ARM_WAIT,10.391203010238998,-0.04400527256126452,False,0,False,False,-69.1806031167179,-68.58739338304264,,,0,0,99.99,,,,,0,0,1490,1490,,False,,
2026-03-07T14:26:37,192.555,7.217868837999987,EVENT,DROP,[DROP] ARM_WAIT alt=-69.12 acc_med=10.391203010238998 dalt_med=-0.044 baseline=-69.18 max_alt=-68.59,,,,,,,,,,,,,,,,,,,,,,,,,,,,,,,,,,,,
2026-03-07T14:26:37,192.555,7.217868837999987,ROW,DROP,arm_wait,-69.12063335614206,-1.35,-4.0200000000000005,9.38,10.294041966108358,-5.5625,-24.0,-44.375,49.3125,-4.8125,19.625,ARM_WAIT,10.391203010238998,-0.04400527256126452,False,0,False,False,-69.1806031167179,-68.58739338304264,,,0,0,99.99,,,,,0,0,1490,1490,,False,,
2026-03-07T14:26:38,192.706,7.366902713000002,EVENT,DROP,[DROP] ARM_WAIT alt=-69.26 acc_med=10.391203010238998 dalt_med=-0.044 baseline=-69.18 max_alt=-68.59,,,,,,,,,,,,,,,,,,,,,,,,,,,,,,,,,,,,
2026-03-07T14:26:38,192.707,7.366902713000002,ROW,DROP,arm_wait,-69.26318171239221,-2.05,-3.39,8.53,9.405078415409411,-6.6875,-22.25,-44.875,43.4375,-6.75,20.5625,ARM_WAIT,10.391203010238998,-0.04400527256126452,False,0,False,False,-69.1806031167179,-68.58739338304264,,,0,0,99.99,,,,,0,0,1490,1490,,False,,
2026-03-07T14:26:38,192.858,7.518304561999997,EVENT,DROP,[DROP] ARM_WAIT alt=-69.35 acc_med=10.391203010238998 dalt_med=-0.044 baseline=-69.18 max_alt=-68.59,,,,,,,,,,,,,,,,,,,,,,,,,,,,,,,,,,,,
2026-03-07T14:26:38,192.858,7.518304561999997,ROW,DROP,arm_wait,-69.34501251651893,-1.96,-4.41,9.49,10.646586307356927,-10.875,-17.375,-46.0,34.9375,-8.0625,26.4375,ARM_WAIT,10.391203010238998,-0.04400527256126452,False,0,False,False,-69.1806031167179,-68.58739338304264,,,0,0,99.99,,,,,0,0,1490,1490,,False,,
2026-03-07T14:26:38,193.019,7.669972067000003,EVENT,DROP,[DROP] ARM_WAIT alt=-69.43 acc_med=10.391203010238998 dalt_med=-0.082 baseline=-69.18 max_alt=-68.59,,,,,,,,,,,,,,,,,,,,,,,,,,,,,,,,,,,,
2026-03-07T14:26:38,193.020,7.669972067000003,ROW,DROP,arm_wait,-69.4303646599584,-3.62,-5.1000000000000005,9.59,11.449126604243661,-12.5,-9.875,-46.875,24.9375,-11.875,31.4375,ARM_WAIT,10.391203010238998,-0.08183080412672439,False,0,False,False,-69.1806031167179,-68.58739338304264,,,0,0,99.99,,,,,0,0,1490,1490,,False,,
2026-03-07T14:26:38,193.173,7.832170689000009,EVENT,DROP,[DROP] ARM_WAIT alt=-69.06 acc_med=10.391203010238998 dalt_med=-0.044 baseline=-69.18 max_alt=-68.59,,,,,,,,,,,,,,,,,,,,,,,,,,,,,,,,,,,,
2026-03-07T14:26:38,193.174,7.832170689000009,ROW,DROP,arm_wait,-69.05987688604341,-2.5100000000000002,-5.64,8.700000000000001,10.667694221339492,-15.6875,-6.375,-43.375,20.8125,-10.5625,32.375,ARM_WAIT,10.391203010238998,-0.04400527256126452,False,0,False,False,-69.1806031167179,-68.58739338304264,,,0,0,99.99,,,,,0,0,1490,1490,,False,,
2026-03-07T14:26:38,193.326,7.985595402999991,EVENT,DROP,[DROP] ARM_WAIT alt=-69.34 acc_med=10.646586307356927 dalt_med=-0.082 baseline=-69.18 max_alt=-68.59,,,,,,,,,,,,,,,,,,,,,,,,,,,,,,,,,,,,
2026-03-07T14:26:38,193.326,7.985595402999991,ROW,DROP,arm_wait,-69.34145720730825,-2.23,-5.88,9.0,10.979403444632135,-15.5,-4.875,-45.75,18.5625,-10.6875,32.75,ARM_WAIT,10.646586307356927,-0.08183080412672439,False,0,False,False,-69.1806031167179,-68.58739338304264,,,0,0,99.99,,,,,0,0,1490,1490,,False,,
2026-03-07T14:26:38,193.484,8.137789118,EVENT,DROP,[DROP] ARM_WAIT alt=-69.35 acc_med=10.667694221339492 dalt_med=-0.082 baseline=-69.18 max_alt=-68.59,,,,,,,,,,,,,,,,,,,,,,,,,,,,,,,,,,,,
2026-03-07T14:26:38,193.485,8.137789118,ROW,DROP,arm_wait,-69.35288554846929,-2.05,-5.6000000000000005,9.06,10.846478691261972,-18.5625,-3.0,-43.5625,17.6875,-10.25,33.0,ARM_WAIT,10.667694221339492,-0.08183080412672439,False,0,False,False,-69.1806031167179,-68.58739338304264,,,0,0,99.99,,,,,0,0,1490,1490,,False,,
2026-03-07T14:26:39,193.635,8.296416712999985,EVENT,DROP,[DROP] ARM_WAIT alt=-69.31 acc_med=10.667694221339492 dalt_med=-0.082 baseline=-69.18 max_alt=-68.59,,,,,,,,,,,,,,,,,,,,,,,,,,,,,,,,,,,,
2026-03-07T14:26:39,193.635,8.296416712999985,ROW,DROP,arm_wait,-69.30620221891398,,,,,-18.25,-3.25,-44.375,17.0625,-10.375,32.25,ARM_WAIT,10.667694221339492,-0.08183080412672439,False,0,False,False,-69.1806031167179,-68.58739338304264,,,0,0,99.99,,,,,0,0,1490,1490,,False,,
2026-03-07T14:26:39,193.789,8.447046800999999,EVENT,DROP,[DROP] ARM_WAIT alt=-69.18 acc_med=10.78327408536016 dalt_med=-0.011 baseline=-69.18 max_alt=-68.59,,,,,,,,,,,,,,,,,,,,,,,,,,,,,,,,,,,,
2026-03-07T14:26:39,193.790,8.447046800999999,ROW,DROP,arm_wait,-69.1785979297067,-2.15,-5.18,9.21,10.78327408536016,-17.375,-4.0625,-44.25,17.0625,-10.4375,31.9375,ARM_WAIT,10.78327408536016,-0.01142834116103586,False,0,False,False,-69.1806031167179,-68.58739338304264,,,0,0,99.99,,,,,0,0,1490,1490,,False,,
2026-03-07T14:26:39,193.946,8.60133699100001,EVENT,DROP,[DROP] ARM_WAIT alt=-69.18 acc_med=10.846478691261972 dalt_med=0.001 baseline=-69.18 max_alt=-68.59,,,,,,,,,,,,,,,,,,,,,,,,,,,,,,,,,,,,
2026-03-07T14:26:39,193.947,8.60133699100001,ROW,DROP,arm_wait,-69.17770844601759,-2.7,-5.17,9.19,10.884622179938079,-17.75,-4.5,-45.0625,16.625,-12.4375,30.6875,ARM_WAIT,10.846478691261972,0.000889483689107351,False,0,False,False,-69.1806031167179,-68.58739338304264,,,0,0,99.99,,,,,0,0,1490,1490,,False,,
2026-03-07T14:26:39,194.100,8.75873205100001,EVENT,DROP,[DROP] ARM_WAIT alt=-69.38 acc_med=10.846478691261972 dalt_med=0.001 baseline=-69.18 max_alt=-68.59,,,,,,,,,,,,,,,,,,,,,,,,,,,,,,,,,,,,
2026-03-07T14:26:39,194.101,8.75873205100001,ROW,DROP,arm_wait,-69.38356171807017,-2.91,-5.24,9.06,10.863208549963497,-16.5625,-4.5,-46.25,16.4375,-15.0,31.5625,ARM_WAIT,10.846478691261972,0.000889483689107351,False,0,False,False,-69.1806031167179,-68.58739338304264,,,0,0,99.99,,,,,0,0,1490,1490,,False,,
2026-03-07T14:26:39,194.250,8.912502018999987,EVENT,DROP,[DROP] ARM_WAIT alt=-69.14 acc_med=10.78327408536016 dalt_med=0.001 baseline=-69.18 max_alt=-68.59,,,,,,,,,,,,,,,,,,,,,,,,,,,,,,,,,,,,
2026-03-07T14:26:39,194.250,8.912502018999987,ROW,DROP,arm_wait,-69.14241292890071,-3.17,-6.3100000000000005,7.8500000000000005,10.55876413222684,-15.1875,-1.0,-43.375,12.0625,-17.75,33.25,ARM_WAIT,10.78327408536016,0.000889483689107351,False,0,False,False,-69.1806031167179,-68.58739338304264,,,0,0,99.99,,,,,0,0,1490,1490,,False,,
2026-03-07T14:26:39,194.400,9.062072773000011,EVENT,DROP,[DROP] ARM_WAIT alt=-69.10 acc_med=10.846478691261972 dalt_med=0.047 baseline=-69.18 max_alt=-68.59,,,,,,,,,,,,,,,,,,,,,,,,,,,,,,,,,,,,
2026-03-07T14:26:39,194.400,9.062072773000011,ROW,DROP,arm_wait,-69.09570605400671,-2.0,-6.43,8.97,11.216318469087796,-15.5625,3.0625,-44.75,0.9375,-17.0625,31.875,ARM_WAIT,10.846478691261972,0.046683329555307296,False,0,False,False,-69.1806031167179,-68.58739338304264,,,0,0,99.99,,,,,0,0,1490,1490,,False,,
2026-03-07T14:26:39,194.549,9.212030061000007,EVENT,DROP,[DROP] ARM_WAIT alt=-69.32 acc_med=10.846478691261972 dalt_med=0.047 baseline=-69.18 max_alt=-68.59,,,,,,,,,,,,,,,,,,,,,,,,,,,,,,,,,,,,
2026-03-07T14:26:39,194.549,9.212030061000007,ROW,DROP,arm_wait,-69.3192033118968,-1.96,-4.5200000000000005,8.78,10.06779022427464,-19.25,9.6875,-40.375,346.4375,-19.8125,30.375,ARM_WAIT,10.846478691261972,0.046683329555307296,False,0,False,False,-69.1806031167179,-68.58739338304264,,,0,0,99.99,,,,,0,0,1490,1490,,False,,
2026-03-07T14:26:40,194.700,9.360981933999994,EVENT,DROP,[DROP] ARM_WAIT alt=-69.37 acc_med=10.846478691261972 dalt_med=0.001 baseline=-69.18 max_alt=-68.59,,,,,,,,,,,,,,,,,,,,,,,,,,,,,,,,,,,,
2026-03-07T14:26:40,194.700,9.360981933999994,ROW,DROP,arm_wait,-69.37462885784586,-1.6300000000000001,-3.91,7.8500000000000005,8.92006165897972,-18.75,16.375,-39.25,336.25,-22.3125,29.625,ARM_WAIT,10.846478691261972,0.000889483689107351,False,0,False,False,-69.1806031167179,-68.58739338304264,,,0,0,99.99,,,,,0,0,1490,1490,,False,,
2026-03-07T14:26:40,194.856,9.51203112799999,EVENT,DROP,[DROP] ARM_WAIT alt=-69.04 acc_med=10.78327408536016 dalt_med=0.001 baseline=-69.18 max_alt=-68.59,,,,,,,,,,,,,,,,,,,,,,,,,,,,,,,,,,,,
2026-03-07T14:26:40,194.857,9.51203112799999,ROW,DROP,arm_wait,-69.03758627284667,-1.19,-4.15,9.02,9.999949999875,-18.0625,19.375,-36.6875,332.75,-20.0625,27.1875,ARM_WAIT,10.78327408536016,0.000889483689107351,False,0,False,False,-69.1806031167179,-68.58739338304264,,,0,0,99.99,,,,,0,0,1490,1490,,False,,
2026-03-07T14:26:40,195.008,9.66844935200001,EVENT,DROP,[DROP] ARM_WAIT alt=-69.26 acc_med=10.78327408536016 dalt_med=-0.055 baseline=-69.18 max_alt=-68.59,,,,,,,,,,,,,,,,,,,,,,,,,,,,,,,,,,,,
2026-03-07T14:26:40,195.008,9.66844935200001,ROW,DROP,arm_wait,-69.26288049010587,-0.88,-4.54,9.55,10.610772827650209,-23.25,19.1875,-35.0,331.625,-13.75,25.375,ARM_WAIT,10.78327408536016,-0.05542554594906335,False,0,False,False,-69.1806031167179,-68.58739338304264,,,0,0,99.99,,,,,0,0,1490,1490,,False,,
2026-03-07T14:26:40,195.158,9.820041005999997,EVENT,DROP,[DROP] ARM_WAIT alt=-69.15 acc_med=10.7453431773955 dalt_med=0.047 baseline=-69.18 max_alt=-68.59,,,,,,,,,,,,,,,,,,,,,,,,,,,,,,,,,,,,
2026-03-07T14:26:40,195.158,9.820041005999997,ROW,DROP,arm_wait,-69.1493351458794,0.56,-3.68,10.08,10.7453431773955,-28.375,17.1875,-30.5,332.4375,-5.5625,21.4375,ARM_WAIT,10.7453431773955,0.046706874893999384,False,0,False,False,-69.1806031167179,-68.58739338304264,,,0,0,99.99,,,,,0,0,1490,1490,,False,,
2026-03-07T14:26:40,195.308,9.969711708000006,EVENT,DROP,[DROP] ARM_WAIT alt=-69.02 acc_med=10.7453431773955 dalt_med=0.047 baseline=-69.18 max_alt=-68.59,,,,,,,,,,,,,,,,,,,,,,,,,,,,,,,,,,,,
2026-03-07T14:26:40,195.308,9.969711708000006,ROW,DROP,arm_wait,-69.02170459158789,0.86,-4.53,10.01,11.02091647731712,-31.5,14.1875,-28.25,332.5625,-1.875,21.0,ARM_WAIT,10.7453431773955,0.046706874893999384,False,0,False,False,-69.1806031167179,-68.58739338304264,,,0,0,99.99,,,,,0,0,1490,1490,,False,,
2026-03-07T14:26:40,195.457,10.119957784000007,EVENT,DROP,[DROP] ARM_WAIT alt=-69.16 acc_med=10.610772827650209 dalt_med=-0.055 baseline=-69.18 max_alt=-68.59,,,,,,,,,,,,,,,,,,,,,,,,,,,,,,,,,,,,
2026-03-07T14:26:40,195.457,10.119957784000007,ROW,DROP,arm_wait,-69.16251650842266,1.1300000000000001,-4.5600000000000005,9.32,10.437092507015544,-33.6875,13.5,-26.375,332.125,0.5,20.25,ARM_WAIT,10.610772827650209,-0.05542554594906335,False,0,False,False,-69.1806031167179,-68.58739338304264,,,0,0,99.99,,,,,0,0,1490,1490,,False,,
2026-03-07T14:26:40,195.616,10.268678816999994,EVENT,DROP,[DROP] ARM_WAIT alt=-69.10 acc_med=10.55876413222684 dalt_med=0.067 baseline=-69.18 max_alt=-68.59,,,,,,,,,,,,,,,,,,,,,,,,,,,,,,,,,,,,
2026-03-07T14:26:40,195.617,10.268678816999994,ROW,DROP,arm_wait,-69.09570605400671,1.31,-4.2700000000000005,9.47,10.470429790605543,-31.5,15.25,-27.1875,80.6875,0.0,20.3125,ARM_WAIT,10.55876413222684,0.06681045441594335,False,0,False,False,-69.1806031167179,-68.58739338304264,,,0,0,99.99,,,,,0,0,1490,1490,,False,,
2026-03-07T14:26:41,195.770,10.428346455999986,EVENT,DROP,[DROP] ARM_WAIT alt=-69.32 acc_med=10.55876413222684 dalt_med=0.067 baseline=-69.18 max_alt=-68.59,,,,,,,,,,,,,,,,,,,,,,,,,,,,,,,,,,,,
2026-03-07T14:26:41,195.770,10.428346455999986,ROW,DROP,arm_wait,-69.3192033118968,0.58,-4.29,11.64,12.418941178699576,-34.875,18.0,-30.875,74.3125,-3.3125,19.375,ARM_WAIT,10.55876413222684,0.06681045441594335,False,0,False,False,-69.1806031167179,-68.58739338304264,,,0,0,99.99,,,,,0,0,1490,1490,,False,,
2026-03-07T14:26:41,195.922,10.582172587000002,EVENT,DROP,[DROP] ARM_WAIT alt=-69.35 acc_med=10.610772827650209 dalt_med=-0.027 baseline=-69.18 max_alt=-68.59,,,,,,,,,,,,,,,,,,,,,,,,,,,,,,,,,,,,
2026-03-07T14:26:41,195.923,10.582172587000002,ROW,DROP,arm_wait,-69.34646740022947,0.92,-3.84,12.14,12.766033056513681,-24.5625,20.25,-30.5,64.9375,-5.1875,16.4375,ARM_WAIT,10.610772827650209,-0.027264088332671577,False,0,False,False,-69.1806031167179,-68.58739338304264,,,0,0,99.99,,,,,0,0,1490,1490,,False,,
2026-03-07T14:26:41,196.076,10.734415500000011,EVENT,DROP,[DROP] ARM_WAIT alt=-68.74 acc_med=10.610772827650209 dalt_med=0.067 baseline=-69.18 max_alt=-68.59,,,,,,,,,,,,,,,,,,,,,,,,,,,,,,,,,,,,
2026-03-07T14:26:41,196.076,10.734415500000011,ROW,DROP,arm_wait,-68.74368203157275,0.76,-4.17,12.11,12.830378014696215,-28.0,25.375,-31.25,57.0,-8.9375,13.125,ARM_WAIT,10.610772827650209,0.06681045441594335,False,0,False,False,-69.1806031167179,-68.58739338304264,,,0,0,99.99,,,,,0,0,1490,1490,,False,,
2026-03-07T14:26:41,196.231,10.887731927999994,EVENT,DROP,[DROP] ARM_WAIT alt=-69.05 acc_med=10.7453431773955 dalt_med=-0.027 baseline=-69.18 max_alt=-68.59,,,,,,,,,,,,,,,,,,,,,,,,,,,,,,,,,,,,
2026-03-07T14:26:41,196.232,10.887731927999994,ROW,DROP,arm_wait,-69.05166729877791,0.9,-4.63,11.53,12.457439544304439,-15.875,25.25,-34.0,48.0,-12.125,5.75,ARM_WAIT,10.7453431773955,-0.027264088332671577,False,0,False,False,-69.1806031167179,-68.58739338304264,,,0,0,99.99,,,,,0,0,1490,1490,,False,,
2026-03-07T14:26:41,196.385,11.043373344000003,EVENT,DROP,[DROP] ARM_WAIT alt=-68.80 acc_med=10.7453431773955 dalt_med=-0.027 baseline=-69.18 max_alt=-68.59,,,,,,,,,,,,,,,,,,,,,,,,,,,,,,,,,,,,
2026-03-07T14:26:41,196.385,11.043373344000003,ROW,DROP,arm_wait,-68.80000664433085,0.36,-4.2,7.15,8.300126505060028,-9.25,24.0,-38.1875,41.6875,-16.6875,-2.125,ARM_WAIT,10.7453431773955,-0.027264088332671577,False,0,False,False,-69.1806031167179,-68.58739338304264,,,0,0,99.99,,,,,0,0,1490,1490,,False,,
2026-03-07T14:26:41,196.537,11.19708516099999,EVENT,DROP,[DROP] ARM_WAIT alt=-68.28 acc_med=10.7453431773955 dalt_med=0.067 baseline=-69.18 max_alt=-68.28,,,,,,,,,,,,,,,,,,,,,,,,,,,,,,,,,,,,
2026-03-07T14:26:41,196.538,11.19708516099999,ROW,DROP,arm_wait,-68.28256926279677,0.71,-0.5700000000000001,4.95,5.033040830352959,-3.5625,22.5625,-42.5625,36.375,-19.375,-11.1875,ARM_WAIT,10.7453431773955,0.06681045441594335,False,0,False,False,-69.1806031167179,-68.28256926279677,,,0,0,99.99,,,,,0,0,1490,1490,,False,,
2026-03-07T14:26:42,196.694,11.349556038999992,EVENT,DROP,[DROP] ARM_WAIT alt=-68.09 acc_med=10.7453431773955 dalt_med=0.196 baseline=-69.18 max_alt=-68.09,,,,,,,,,,,,,,,,,,,,,,,,,,,,,,,,,,,,
2026-03-07T14:26:42,196.694,11.349556038999992,ROW,DROP,arm_wait,-68.086327814998,-1.78,1.1,5.32,5.716712341897221,2.6875,17.75,-44.875,33.75,-24.9375,-19.9375,ARM_WAIT,10.7453431773955,0.1962414477987693,False,0,False,False,-69.1806031167179,-68.086327814998,,,0,0,99.99,,,,,0,0,1490,1490,,False,,
2026-03-07T14:26:42,196.846,11.505840328000005,EVENT,DROP,[DROP] ARM_WAIT alt=-67.87 acc_med=10.470429790605543 dalt_med=0.219 baseline=-69.18 max_alt=-67.87,,,,,,,,,,,,,,,,,,,,,,,,,,,,,,,,,,,,
2026-03-07T14:26:42,196.847,11.505840328000005,ROW,DROP,arm_wait,-67.86730324294683,-2.34,3.39,4.84,6.355572358175147,6.0625,13.375,-48.0625,30.1875,-25.5625,-27.75,ARM_WAIT,10.470429790605543,0.21902457205116832,False,0,False,False,-69.1806031167179,-67.86730324294683,,,0,0,99.99,,,,,0,0,1490,1490,,False,,
2026-03-07T14:26:42,196.998,11.658576380999989,EVENT,DROP,[DROP] ARM_WAIT alt=-67.94 acc_med=10.437092507015544 dalt_med=0.219 baseline=-69.18 max_alt=-67.87,,,,,,,,,,,,,,,,,,,,,,,,,,,,,,,,,,,,
2026-03-07T14:26:42,196.998,11.658576380999989,ROW,DROP,arm_wait,-67.93680984624673,-2.59,2.8000000000000003,2.04,4.32547107261163,9.1875,10.75,-48.875,26.375,-26.875,-31.6875,ARM_WAIT,10.437092507015544,0.21902457205116832,False,0,False,False,-69.1806031167179,-67.86730324294683,,,0,0,99.99,,,,,0,0,1490,1490,,False,,
2026-03-07T14:26:42,197.184,11.810249591999991,EVENT,DROP,[DROP] ARM_WAIT alt=-68.13 acc_med=10.36593459365821 dalt_med=0.196 baseline=-69.18 max_alt=-67.87,,,,,,,,,,,,,,,,,,,,,,,,,,,,,,,,,,,,
2026-03-07T14:26:42,197.184,11.810249591999991,ROW,DROP,arm_wait,-68.12857319752666,0.03,-6.0600000000000005,-8.41,10.36593459365821,11.5625,9.875,-49.5,23.0625,-27.5625,-37.375,ARM_WAIT,10.36593459365821,0.1962414477987693,False,0,False,False,-69.1806031167179,-67.86730324294683,,,0,0,99.99,,,,,0,0,1490,1490,,False,,
2026-03-07T14:26:42,197.335,11.996134794999989,EVENT,DROP,[DROP] ARM_WAIT alt=-67.80 acc_med=10.36593459365821 dalt_med=0.219 baseline=-69.18 max_alt=-67.80,,,,,,,,,,,,,,,,,,,,,,,,,,,,,,,,,,,,
2026-03-07T14:26:42,197.335,11.996134794999989,ROW,DROP,arm_wait,-67.7959921384189,5.16,-12.620000000000001,6.71,15.195857988280887,17.5625,6.5625,-46.0625,17.625,-29.8125,-29.25,ARM_WAIT,10.36593459365821,0.21902457205116832,False,0,False,False,-69.1806031167179,-67.7959921384189,,,0,0,99.99,,,,,0,0,1490,1490,,False,,
2026-03-07T14:26:42,197.487,12.147097172000002,EVENT,DROP,[DROP] ARM_WAIT alt=-69.21 acc_med=10.36593459365821 dalt_med=0.196 baseline=-69.18 max_alt=-67.80,,,,,,,,,,,,,,,,,,,,,,,,,,,,,,,,,,,,
2026-03-07T14:26:42,197.488,12.147097172000002,ROW,DROP,arm_wait,-69.20586808501713,0.05,-4.73,32.58,32.92160081162518,6.875,28.1875,-33.5,18.75,-14.5625,10.0625,ARM_WAIT,10.36593459365821,0.1962414477987693,False,0,False,False,-69.1806031167179,-67.7959921384189,,,0,0,99.99,,,,,0,0,1490,1490,,False,,
2026-03-07T14:26:43,197.639,12.299267848,EVENT,DROP,[DROP] ARM_WAIT alt=-69.85 acc_med=10.36593459365821 dalt_med=-0.070 baseline=-69.18 max_alt=-67.80,,,,,,,,,,,,,,,,,,,,,,,,,,,,,,,,,,,,
2026-03-07T14:26:43,197.639,12.299267848,ROW,DROP,arm_wait,-69.85440353678248,-0.6900000000000001,-1.58,19.75,19.825110340172134,1.25,35.0,-24.0625,18.75,-10.6875,7.5625,ARM_WAIT,10.36593459365821,-0.06950660329989944,False,0,False,False,-69.1806031167179,-67.7959921384189,,,0,0,99.99,,,,,0,0,1490,1490,,False,,
2026-03-07T14:26:43,197.797,12.451016253000006,EVENT,DROP,[DROP] ARM_WAIT alt=-69.85 acc_med=10.36593459365821 dalt_med=-0.070 baseline=-69.18 max_alt=-67.80,,,,,,,,,,,,,,,,,,,,,,,,,,,,,,,,,,,,
2026-03-07T14:26:43,197.799,12.451016253000006,ROW,DROP,arm_wait,-69.84564491298188,1.36,-3.34,11.36,11.918674422938148,-0.5,33.875,-25.75,17.1875,-7.625,6.3125,ARM_WAIT,10.36593459365821,-0.06950660329989944,False,0,False,False,-69.1806031167179,-67.7959921384189,,,0,0,99.99,,,,,0,0,1490,1490,,False,,
2026-03-07T14:26:43,197.953,12.610656086000006,EVENT,DROP,[DROP] ARM_WAIT alt=-69.67 acc_med=10.36593459365821 dalt_med=-0.070 baseline=-69.18 max_alt=-67.80,,,,,,,,,,,,,,,,,,,,,,,,,,,,,,,,,,,,
2026-03-07T14:26:43,197.954,12.610656086000006,ROW,DROP,arm_wait,-69.67057369821086,1.05,-4.29,13.39,14.099599285086084,0.875,34.75,-25.0,20.1875,-9.0625,10.0,ARM_WAIT,10.36593459365821,-0.06950660329989944,False,0,False,False,-69.1806031167179,-67.7959921384189,,,0,0,99.99,,,,,0,0,1490,1490,,False,,
2026-03-07T14:26:43,198.105,12.766198392999996,EVENT,DROP,[DROP] ARM_WAIT alt=-69.62 acc_med=11.918674422938148 dalt_med=0.009 baseline=-69.18 max_alt=-67.80,,,,,,,,,,,,,,,,,,,,,,,,,,,,,,,,,,,,
2026-03-07T14:26:43,198.109,12.766198392999996,ROW,DROP,arm_wait,-69.61513809532778,-2.02,-3.06,-315.35,315.3713152777215,-1.0,35.5,-24.5,19.0,-9.625,7.8125,ARM_WAIT,11.918674422938148,0.00875862380060255,False,0,False,False,-69.1806031167179,-67.7959921384189,,,0,0,99.99,,,,,0,0,1490,1490,,False,,
2026-03-07T14:26:43,198.259,12.920302415999998,EVENT,DROP,[DROP] ARM_WAIT alt=-69.57 acc_med=11.918674422938148 dalt_med=0.042 baseline=-69.18 max_alt=-67.80,,,,,,,,,,,,,,,,,,,,,,,,,,,,,,,,,,,,
2026-03-07T14:26:43,198.259,12.920302415999998,ROW,DROP,arm_wait,-69.57290393346956,0.54,-3.18,7.6000000000000005,8.256149223457628,0.5,33.25,-30.75,13.8125,-7.1875,0.625,ARM_WAIT,11.918674422938148,0.042234161858218044,False,0,False,False,-69.1806031167179,-67.7959921384189,,,0,0,99.99,,,,,0,0,1490,1490,,False,,
2026-03-07T14:26:43,198.416,13.070924754000004,EVENT,DROP,[DROP] ARM_WAIT alt=-69.49 acc_med=11.918674422938148 dalt_med=0.042 baseline=-69.18 max_alt=-67.80,,,,,,,,,,,,,,,,,,,,,,,,,,,,,,,,,,,,
2026-03-07T14:26:43,198.417,13.070924754000004,ROW,DROP,arm_wait,-69.49286166756649,1.6600000000000001,-3.61,8.07,8.995143133936224,2.875,30.25,-32.6875,5.0625,-3.125,-2.3125,ARM_WAIT,11.918674422938148,0.042234161858218044,False,0,False,False,-69.1806031167179,-67.7959921384189,,,0,0,99.99,,,,,0,0,1490,1490,,False,,
2026-03-07T14:26:43,198.570,13.228537176999993,EVENT,DROP,[DROP] ARM_WAIT alt=-69.16 acc_med=11.918674422938148 dalt_med=0.055 baseline=-69.18 max_alt=-67.80,,,,,,,,,,,,,,,,,,,,,,,,,,,,,,,,,,,,
2026-03-07T14:26:43,198.570,13.228537176999993,ROW,DROP,arm_wait,-69.16116479736218,0.27,-4.12,9.16,10.047532035281101,9.5625,28.875,-34.375,353.4375,-3.875,-2.75,ARM_WAIT,11.918674422938148,0.05543560288307958,False,0,False,False,-69.1806031167179,-67.7959921384189,,,0,0,99.99,,,,,0,0,1490,1490,,False,,
2026-03-07T14:26:44,198.721,13.382148475000008,EVENT,DROP,[DROP] ARM_WAIT alt=-69.13 acc_med=11.918674422938148 dalt_med=0.055 baseline=-69.18 max_alt=-67.80,,,,,,,,,,,,,,,,,,,,,,,,,,,,,,,,,,,,
2026-03-07T14:26:44,198.721,13.382148475000008,ROW,DROP,arm_wait,-69.13475673450169,1.33,-2.77,6.73,7.39829034304548,13.0625,26.6875,-33.875,346.0625,-1.0625,-8.375,ARM_WAIT,11.918674422938148,0.05543560288307958,False,0,False,False,-69.1806031167179,-67.7959921384189,,,0,0,99.99,,,,,0,0,1490,1490,,False,,
2026-03-07T14:26:44,198.880,13.533219307999985,EVENT,DROP,[DROP] ARM_WAIT alt=-69.14 acc_med=11.918674422938148 dalt_med=0.055 baseline=-69.18 max_alt=-67.80,,,,,,,,,,,,,,,,,,,,,,,,,,,,,,,,,,,,
2026-03-07T14:26:44,198.880,13.533219307999985,ROW,DROP,arm_wait,-69.14266188729785,0.42,-2.29,8.02,8.35110172372484,18.25,19.25,-38.375,337.125,-4.3125,-15.0625,ARM_WAIT,11.918674422938148,0.05543560288307958,False,0,False,False,-69.1806031167179,-67.7959921384189,,,0,0,99.99,,,,,0,0,1490,1490,,False,,
2026-03-07T14:26:44,199.036,13.692091479999988,EVENT,DROP,[DROP] ARM_WAIT alt=-68.99 acc_med=10.047532035281101 dalt_med=0.055 baseline=-69.18 max_alt=-67.80,,,,,,,,,,,,,,,,,,,,,,,,,,,,,,,,,,,,
2026-03-07T14:26:44,199.037,13.692091479999988,ROW,DROP,arm_wait,-68.98867806386517,2.74,-1.21,8.870000000000001,9.36208310153248,24.25,16.25,-35.0,333.8125,-6.3125,-15.4375,ARM_WAIT,10.047532035281101,0.05543560288307958,False,0,False,False,-69.1806031167179,-67.7959921384189,,,0,0,99.99,,,,,0,0,1490,1490,,False,,
2026-03-07T14:26:44,199.189,13.848273889000012,EVENT,DROP,[DROP] ARM_WAIT alt=-68.91 acc_med=9.36208310153248 dalt_med=0.080 baseline=-69.18 max_alt=-67.80,,,,,,,,,,,,,,,,,,,,,,,,,,,,,,,,,,,,
2026-03-07T14:26:44,199.189,13.848273889000012,ROW,DROP,arm_wait,-68.90775885689018,1.35,-2.44,8.77,9.202662658165842,23.1875,17.875,-34.6875,332.3125,-6.625,-11.8125,ARM_WAIT,9.36208310153248,0.0800422659030744,False,0,False,False,-69.1806031167179,-67.7959921384189,,,0,0,99.99,,,,,0,0,1490,1490,,False,,
2026-03-07T14:26:44,199.341,14.00077113399999,EVENT,DROP,[DROP] ARM_WAIT alt=-69.04 acc_med=9.202662658165842 dalt_med=0.080 baseline=-69.18 max_alt=-67.80,,,,,,,,,,,,,,,,,,,,,,,,,,,,,,,,,,,,
2026-03-07T14:26:44,199.341,14.00077113399999,ROW,DROP,arm_wait,-69.04411410714452,-0.99,-3.8200000000000003,7.36,8.35117357022353,25.375,17.5,-31.0625,329.4375,-7.375,-9.5625,ARM_WAIT,9.202662658165842,0.0800422659030744,False,0,False,False,-69.1806031167179,-67.7959921384189,,,0,0,99.99,,,,,0,0,1490,1490,,False,,
2026-03-07T14:26:44,199.493,14.152936111000002,EVENT,DROP,[DROP] ARM_WAIT alt=-68.76 acc_med=9.202662658165842 dalt_med=0.081 baseline=-69.18 max_alt=-67.80,,,,,,,,,,,,,,,,,,,,,,,,,,,,,,,,,,,,
2026-03-07T14:26:44,199.493,14.152936111000002,ROW,DROP,arm_wait,-68.76254407819503,1.7,-2.62,10.83,11.271348632705848,24.6875,18.25,-35.875,331.9375,-2.3125,-11.375,ARM_WAIT,9.202662658165842,0.08091920697498267,False,0,False,False,-69.1806031167179,-67.7959921384189,,,0,0,99.99,,,,,0,0,1490,1490,,False,,
2026-03-07T14:26:45,199.650,14.305322789999991,EVENT,DROP,[DROP] ARM_WAIT alt=-68.96 acc_med=9.202662658165842 dalt_med=0.026 baseline=-69.18 max_alt=-67.80,,,,,,,,,,,,,,,,,,,,,,,,,,,,,,,,,,,,
2026-03-07T14:26:45,199.659,14.305322789999991,ROW,DROP,arm_wait,-68.95788588059926,1.48,-3.52,9.700000000000001,10.424528766328002,19.875,17.1875,-36.25,333.125,-1.125,-11.1875,ARM_WAIT,9.202662658165842,0.026408062860483028,False,0,False,False,-69.1806031167179,-67.7959921384189,,,0,0,99.99,,,,,0,0,1490,1490,,False,,
2026-03-07T14:26:45,199.809,14.471289950999989,EVENT,DROP,[DROP] ARM_WAIT alt=-69.02 acc_med=9.202662658165842 dalt_med=-0.008 baseline=-69.18 max_alt=-67.80,,,,,,,,,,,,,,,,,,,,,,,,,,,,,,,,,,,,
2026-03-07T14:26:45,199.809,14.471289950999989,ROW,DROP,arm_wait,-69.0238448365463,2.2600000000000002,-2.42,9.64,10.192821003039345,19.875,19.75,-33.875,332.9375,0.875,-9.0,ARM_WAIT,9.202662658165842,-0.007905152796155335,False,0,False,False,-69.1806031167179,-67.7959921384189,,,0,0,99.99,,,,,0,0,1490,1490,,False,,
2026-03-07T14:26:45,199.960,14.620769618999987,EVENT,DROP,[DROP] ARM_WAIT alt=-68.83 acc_med=9.317242081216953 dalt_med=0.081 baseline=-69.18 max_alt=-67.80,,,,,,,,,,,,,,,,,,,,,,,,,,,,,,,,,,,,
2026-03-07T14:26:45,199.960,14.620769618999987,ROW,DROP,arm_wait,-68.82673990721995,1.79,-3.0500000000000003,8.620000000000001,9.317242081216953,20.875,19.0,-36.0,327.5625,2.0,-9.1875,ARM_WAIT,9.317242081216953,0.08091920697498267,False,0,False,False,-69.1806031167179,-67.7959921384189,,,0,0,99.99,,,,,0,0,1490,1490,,False,,
2026-03-07T14:26:45,200.114,14.771515034000004,EVENT,DROP,[DROP] ARM_WAIT alt=-69.08 acc_med=9.36208310153248 dalt_med=-0.066 baseline=-69.18 max_alt=-67.80,,,,,,,,,,,,,,,,,,,,,,,,,,,,,,,,,,,,
2026-03-07T14:26:45,200.115,14.771515034000004,ROW,DROP,arm_wait,-69.0792786894888,0.81,-3.22,8.93,9.52729762314582,22.75,15.25,-35.1875,323.5,1.9375,-7.75,ARM_WAIT,9.36208310153248,-0.06595895594703904,False,0,False,False,-69.1806031167179,-67.7959921384189,,,0,0,99.99,,,,,0,0,1490,1490,,False,,
2026-03-07T14:26:45,200.266,14.92642876299999,EVENT,DROP,[DROP] ARM_WAIT alt=-69.16 acc_med=9.36208310153248 dalt_med=-0.084 baseline=-69.18 max_alt=-67.80,,,,,,,,,,,,,,,,,,,,,,,,,,,,,,,,,,,,
2026-03-07T14:26:45,200.266,14.92642876299999,ROW,DROP,arm_wait,-69.16286996478301,1.22,-3.16,9.35,9.944671940290439,24.0,14.5,-36.0,323.5,2.0625,-6.625,ARM_WAIT,9.36208310153248,-0.08359127529421073,False,0,False,False,-69.1806031167179,-67.7959921384189,,,0,0,99.99,,,,,0,0,1490,1490,,False,,
2026-03-07T14:26:45,200.414,15.077756951999987,EVENT,DROP,[DROP] ARM_WAIT alt=-68.99 acc_med=9.52729762314582 dalt_med=-0.066 baseline=-69.18 max_alt=-67.80,,,,,,,,,,,,,,,,,,,,,,,,,,,,,,,,,,,,
2026-03-07T14:26:45,200.414,15.077756951999987,ROW,DROP,arm_wait,-68.98682121636988,1.07,-2.82,9.64,10.100836599014956,22.875,15.25,-35.5625,325.0,1.5625,-6.375,ARM_WAIT,9.52729762314582,-0.06595895594703904,False,0,False,False,-69.1806031167179,-67.7959921384189,,,0,0,99.99,,,,,0,0,1490,1490,,False,,
2026-03-07T14:26:45,200.563,15.22588368999999,EVENT,DROP,[DROP] ARM_WAIT alt=-69.14 acc_med=9.944671940290439 dalt_med=-0.084 baseline=-69.18 max_alt=-67.80,,,,,,,,,,,,,,,,,,,,,,,,,,,,,,,,,,,,
2026-03-07T14:26:45,200.564,15.22588368999999,ROW,DROP,arm_wait,-69.13635867861915,1.6500000000000001,-2.2600000000000002,9.950000000000001,10.335985681104635,23.25,14.5,-37.1875,326.6875,1.1875,-6.375,ARM_WAIT,9.944671940290439,-0.08359127529421073,False,0,False,False,-69.1806031167179,-67.7959921384189,,,0,0,99.99,,,,,0,0,1490,1490,,False,,
2026-03-07T14:26:46,200.713,15.375491933999996,EVENT,DROP,[DROP] ARM_WAIT alt=-68.97 acc_med=9.944671940290439 dalt_med=-0.066 baseline=-69.18 max_alt=-67.80,,,,,,,,,,,,,,,,,,,,,,,,,,,,,,,,,,,,
2026-03-07T14:26:46,200.713,15.375491933999996,ROW,DROP,arm_wait,-68.96740002630436,1.17,-2.22,9.58,9.903216649149911,18.375,15.25,-35.1875,327.625,0.1875,-6.875,ARM_WAIT,9.944671940290439,-0.06595895594703904,False,0,False,False,-69.1806031167179,-67.7959921384189,,,0,0,99.99,,,,,0,0,1490,1490,,False,,
2026-03-07T14:26:46,200.862,15.524667580999989,EVENT,DROP,[DROP] ARM_WAIT alt=-69.31 acc_med=9.944671940290439 dalt_med=-0.084 baseline=-69.18 max_alt=-67.80,,,,,,,,,,,,,,,,,,,,,,,,,,,,,,,,,,,,
2026-03-07T14:26:46,200.863,15.524667580999989,ROW,DROP,arm_wait,-69.31226993346459,1.04,-2.21,9.58,9.886460438397556,24.0,15.25,-36.25,327.0,1.5625,-1.9375,ARM_WAIT,9.944671940290439,-0.08359127529421073,False,0,False,False,-69.1806031167179,-67.7959921384189,,,0,0,99.99,,,,,0,0,1490,1490,,False,,
2026-03-07T14:26:46,201.019,15.674799624000002,EVENT,DROP,[DROP] ARM_WAIT alt=-69.18 acc_med=9.944671940290439 dalt_med=-0.084 baseline=-69.18 max_alt=-67.80,,,,,,,,,,,,,,,,,,,,,,,,,,,,,,,,,,,,
2026-03-07T14:26:46,201.019,15.674799624000002,ROW,DROP,arm_wait,-69.18465419080415,0.85,-1.95,9.6,9.832853095617772,13.1875,12.6875,-37.0625,325.9375,2.25,1.4375,ARM_WAIT,9.944671940290439,-0.08359127529421073,False,0,False,False,-69.1806031167179,-67.7959921384189,,,0,0,99.99,,,,,0,0,1490,1490,,False,,
2026-03-07T14:26:46,201.170,15.830529108000007,EVENT,DROP,[DROP] ARM_WAIT alt=-69.25 acc_med=9.903216649149911 dalt_med=-0.064 baseline=-69.18 max_alt=-67.80,,,,,,,,,,,,,,,,,,,,,,,,,,,,,,,,,,,,
2026-03-07T14:26:46,201.172,15.830529108000007,ROW,DROP,arm_wait,-69.24879973886986,0.81,-1.6500000000000001,9.43,9.607471051218422,24.0,11.875,-37.0625,323.5625,3.5,3.875,ARM_WAIT,9.903216649149911,-0.06414554806571005,False,0,False,False,-69.1806031167179,-67.7959921384189,,,0,0,99.99,,,,,0,0,1490,1490,,False,,
2026-03-07T14:26:46,201.322,15.983378574999989,EVENT,DROP,[DROP] ARM_WAIT alt=-69.22 acc_med=9.886460438397556 dalt_med=0.028 baseline=-69.18 max_alt=-67.80,,,,,,,,,,,,,,,,,,,,,,,,,,,,,,,,,,,,
2026-03-07T14:26:46,201.322,15.983378574999989,ROW,DROP,arm_wait,-69.22063818147258,1.02,-1.81,9.42,9.646393108307374,18.75,12.0,-37.5,322.8125,4.6875,6.9375,ARM_WAIT,9.886460438397556,0.028161557397282877,False,0,False,False,-69.1806031167179,-67.7959921384189,,,0,0,99.99,,,,,0,0,1490,1490,,False,,
2026-03-07T14:26:46,201.472,16.133926631999998,EVENT,DROP,[DROP] ARM_WAIT alt=-68.98 acc_med=9.832853095617772 dalt_med=0.028 baseline=-69.18 max_alt=-67.80,,,,,,,,,,,,,,,,,,,,,,,,,,,,,,,,,,,,
2026-03-07T14:26:46,201.473,16.133926631999998,ROW,DROP,arm_wait,-68.97946065942087,1.24,-1.76,9.5,9.740903448859351,24.0,11.25,-37.375,323.3125,6.0,8.5625,ARM_WAIT,9.832853095617772,0.028161557397282877,False,0,False,False,-69.1806031167179,-67.7959921384189,,,0,0,99.99,,,,,0,0,1490,1490,,False,,
2026-03-07T14:26:47,201.630,16.284535361999986,EVENT,DROP,[DROP] ARM_WAIT alt=-69.28 acc_med=9.832853095617772 dalt_med=0.028 baseline=-69.18 max_alt=-67.80,,,,,,,,,,,,,,,,,,,,,,,,,,,,,,,,,,,,
2026-03-07T14:26:47,201.630,16.284535361999986,ROW,DROP,arm_wait,-69.28387107179742,1.27,-1.9100000000000001,9.36,9.636939348154058,23.25,12.375,-36.6875,323.5,6.625,9.625,ARM_WAIT,9.832853095617772,0.028161557397282877,False,0,False,False,-69.1806031167179,-67.7959921384189,,,0,0,99.99,,,,,0,0,1490,1490,,False,,
2026-03-07T14:26:47,201.782,16.442162236,EVENT,DROP,[DROP] ARM_WAIT alt=-69.24 acc_med=9.832853095617772 dalt_med=0.028 baseline=-69.18 max_alt=-67.80,,,,,,,,,,,,,,,,,,,,,,,,,,,,,,,,,,,,
2026-03-07T14:26:47,201.783,16.442162236,ROW,DROP,arm_wait,-69.24072452243453,1.1500000000000001,-2.15,9.49,9.79821922596142,23.6875,12.0,-37.5,324.0,6.8125,11.0625,ARM_WAIT,9.832853095617772,0.028161557397282877,False,0,False,False,-69.1806031167179,-67.7959921384189,,,0,0,99.99,,,,,0,0,1490,1490,,False,,
2026-03-07T14:26:47,201.933,16.59425146000001,EVENT,DROP,[DROP] ARM_WAIT alt=-69.07 acc_med=9.79821922596142 dalt_med=0.043 baseline=-69.18 max_alt=-67.80,,,,,,,,,,,,,,,,,,,,,,,,,,,,,,,,,,,,
2026-03-07T14:26:47,201.933,16.59425146000001,ROW,DROP,arm_wait,-69.07355290723001,1.2,-2.4,9.39,9.765864017074987,23.1875,15.0,-37.375,324.375,7.375,12.5625,ARM_WAIT,9.79821922596142,0.043146549362887754,False,0,False,False,-69.1806031167179,-67.7959921384189,,,0,0,99.99,,,,,0,0,1490,1490,,False,,
2026-03-07T14:26:47,202.084,16.74483448000001,EVENT,DROP,[DROP] ARM_WAIT alt=-69.19 acc_med=9.79821922596142 dalt_med=0.028 baseline=-69.18 max_alt=-67.80,,,,,,,,,,,,,,,,,,,,,,,,,,,,,,,,,,,,
2026-03-07T14:26:47,202.085,16.74483448000001,ROW,DROP,arm_wait,-69.18620383283081,1.32,-2.56,9.47,9.898328141661096,23.1875,13.5,-36.1875,324.4375,7.8125,13.1875,ARM_WAIT,9.79821922596142,0.028161557397282877,False,0,False,False,-69.1806031167179,-67.7959921384189,,,0,0,99.99,,,,,0,0,1490,1490,,False,,
2026-03-07T14:26:47,202.236,16.896461235000004,EVENT,DROP,[DROP] ARM_WAIT alt=-69.26 acc_med=9.79821922596142 dalt_med=0.028 baseline=-69.18 max_alt=-67.80,,,,,,,,,,,,,,,,,,,,,,,,,,,,,,,,,,,,
2026-03-07T14:26:47,202.237,16.896461235000004,ROW,DROP,arm_wait,-69.2566100661206,1.42,-2.29,9.44,9.817031119437281,23.1875,14.25,-37.6875,324.1875,7.8125,12.8125,ARM_WAIT,9.79821922596142,0.028161557397282877,False,0,False,False,-69.1806031167179,-67.7959921384189,,,0,0,99.99,,,,,0,0,1490,1490,,False,,
2026-03-07T14:26:47,202.392,17.048408437000006,EVENT,DROP,[DROP] ARM_WAIT alt=-69.10 acc_med=9.79821922596142 dalt_med=0.043 baseline=-69.18 max_alt=-67.80,,,,,,,,,,,,,,,,,,,,,,,,,,,,,,,,,,,,
2026-03-07T14:26:47,202.393,17.048408437000006,ROW,DROP,arm_wait,-69.1026176768567,1.47,-2.24,9.49,9.860963441773832,22.375,14.25,-36.5625,323.8125,8.125,12.75,ARM_WAIT,9.79821922596142,0.043146549362887754,False,0,False,False,-69.1806031167179,-67.7959921384189,,,0,0,99.99,,,,,0,0,1490,1490,,False,,
2026-03-07T14:26:47,202.544,17.204467039000008,EVENT,DROP,[DROP] ARM_WAIT alt=-69.07 acc_med=9.79821922596142 dalt_med=0.030 baseline=-69.18 max_alt=-67.80,,,,,,,,,,,,,,,,,,,,,,,,,,,,,,,,,,,,
2026-03-07T14:26:47,202.544,17.204467039000008,ROW,DROP,arm_wait,-69.07264982383874,1.53,-2.44,9.41,9.840863783225537,23.1875,13.5,-38.1875,323.375,8.5625,13.4375,ARM_WAIT,9.79821922596142,0.029967853017950574,False,0,False,False,-69.1806031167179,-67.7959921384189,,,0,0,99.99,,,,,0,0,1490,1490,,False,,
2026-03-07T14:26:48,202.694,17.356054543,EVENT,DROP,[DROP] ARM_WAIT alt=-68.97 acc_med=9.79821922596142 dalt_med=0.043 baseline=-69.18 max_alt=-67.80,,,,,,,,,,,,,,,,,,,,,,,,,,,,,,,,,,,,
2026-03-07T14:26:48,202.695,17.356054543,ROW,DROP,arm_wait,-68.97407849790378,1.62,-2.43,9.42,9.862337451131959,22.0625,4.75,-36.1875,322.9375,8.6875,13.4375,ARM_WAIT,9.79821922596142,0.043146549362887754,False,0,False,False,-69.1806031167179,-67.7959921384189,,,0,0,99.99,,,,,0,0,1490,1490,,False,,
2026-03-07T14:26:48,202.844,17.506351136000006,EVENT,DROP,[DROP] ARM_WAIT alt=-69.24 acc_med=9.817031119437281 dalt_med=0.030 baseline=-69.18 max_alt=-67.80,,,,,,,,,,,,,,,,,,,,,,,,,,,,,,,,,,,,
2026-03-07T14:26:48,202.845,17.506351136000006,ROW,DROP,arm_wait,-69.23533788636877,1.6300000000000001,-2.42,9.55,9.985779889422759,23.1875,12.375,-39.0,321.9375,8.6875,13.0625,ARM_WAIT,9.817031119437281,0.029967853017950574,False,0,False,False,-69.1806031167179,-67.7959921384189,,,0,0,99.99,,,,,0,0,1490,1490,,False,,
2026-03-07T14:26:48,203.004,17.657226702000003,EVENT,DROP,[DROP] ARM_WAIT alt=-69.28 acc_med=9.840863783225537 dalt_med=-0.040 baseline=-69.18 max_alt=-67.80,,,,,,,,,,,,,,,,,,,,,,,,,,,,,,,,,,,,
2026-03-07T14:26:48,203.005,17.657226702000003,ROW,DROP,arm_wait,-69.27577031317504,1.56,-2.37,9.73,10.135255300188547,23.1875,11.5625,-37.6875,319.5625,8.5,12.3125,ARM_WAIT,9.840863783225537,-0.04043242680627657,False,0,False,False,-69.1806031167179,-67.7959921384189,,,0,0,99.99,,,,,0,0,1490,1490,,False,,
2026-03-07T14:26:48,203.156,17.81636850999999,EVENT,DROP,[DROP] ARM_WAIT alt=-68.92 acc_med=9.860963441773832 dalt_med=0.030 baseline=-69.18 max_alt=-67.80,,,,,,,,,,,,,,,,,,,,,,,,,,,,,,,,,,,,
2026-03-07T14:26:48,203.157,17.81636850999999,ROW,DROP,arm_wait,-68.924625163568,1.58,-2.39,10.05,10.450406690650848,23.875,9.0,-39.0,315.5625,7.5,11.8125,ARM_WAIT,9.860963441773832,0.029967853017950574,False,0,False,False,-69.1806031167179,-67.7959921384189,,,0,0,99.99,,,,,0,0,1490,1490,,False,,
2026-03-07T14:26:48,203.307,17.96839275299999,EVENT,DROP,[DROP] ARM_WAIT alt=-68.80 acc_med=9.862337451131959 dalt_med=0.099 baseline=-69.18 max_alt=-67.80,,,,,,,,,,,,,,,,,,,,,,,,,,,,,,,,,,,,
2026-03-07T14:26:48,203.307,17.96839275299999,ROW,DROP,arm_wait,-68.79788362419126,2.0,-3.27,9.85,10.569550605394724,25.375,5.5625,-38.5625,307.8125,6.5,13.6875,ARM_WAIT,9.862337451131959,0.09857132593496942,False,0,False,False,-69.1806031167179,-67.7959921384189,,,0,0,99.99,,,,,0,0,1490,1490,,False,,
2026-03-07T14:26:48,203.458,18.118895530000003,EVENT,DROP,[DROP] ARM_WAIT alt=-68.81 acc_med=9.898328141661096 dalt_med=0.030 baseline=-69.18 max_alt=-67.80,,,,,,,,,,,,,,,,,,,,,,,,,,,,,,,,,,,,
2026-03-07T14:26:48,203.458,18.118895530000003,ROW,DROP,arm_wait,-68.81105540021863,2.94,-4.04,10.32,11.465932147017092,25.0625,3.75,-40.1875,299.1875,7.625,16.4375,ARM_WAIT,9.898328141661096,0.029967853017950574,False,0,False,False,-69.1806031167179,-67.7959921384189,,,0,0,99.99,,,,,0,0,1490,1490,,False,,
2026-03-07T14:26:48,203.615,18.269631521999997,EVENT,DROP,[DROP] ARM_WAIT alt=-68.85 acc_med=9.985779889422759 dalt_med=-0.013 baseline=-69.18 max_alt=-67.80,,,,,,,,,,,,,,,,,,,,,,,,,,,,,,,,,,,,
2026-03-07T14:26:48,203.616,18.269631521999997,ROW,DROP,arm_wait,-68.84971863169775,1.36,-4.74,10.71,11.790729409158706,24.75,-2.5625,-40.1875,282.625,3.25,17.375,ARM_WAIT,9.985779889422759,-0.013171776027377291,False,0,False,False,-69.1806031167179,-67.7959921384189,,,0,0,99.99,,,,,0,0,1490,1490,,False,,
2026-03-07T14:26:49,203.766,18.427511423999988,EVENT,DROP,[DROP] ARM_WAIT alt=-68.84 acc_med=10.01307645032235 dalt_med=-0.013 baseline=-69.18 max_alt=-67.80,,,,,,,,,,,,,,,,,,,,,,,,,,,,,,,,,,,,
2026-03-07T14:26:49,203.767,18.427511423999988,ROW,DROP,arm_wait,-68.83563599113108,0.64,-3.39,9.4,10.01307645032235,24.0,-9.875,-38.5625,268.875,-1.9375,12.9375,ARM_WAIT,10.01307645032235,-0.013171776027377291,False,0,False,False,-69.1806031167179,-67.7959921384189,,,0,0,99.99,,,,,0,0,1490,1490,,False,,
2026-03-07T14:26:49,203.916,18.578308877000012,EVENT,DROP,[DROP] ARM_WAIT alt=-68.74 acc_med=10.135255300188547 dalt_med=0.014 baseline=-69.18 max_alt=-67.80,,,,,,,,,,,,,,,,,,,,,,,,,,,,,,,,,,,,
2026-03-07T14:26:49,203.917,18.578308877000012,ROW,DROP,arm_wait,-68.74064230964741,0.05,-2.44,10.040000000000001,10.332361782283856,23.0625,-17.25,-37.6875,257.25,-9.0,6.125,ARM_WAIT,10.135255300188547,0.01408264056667008,False,0,False,False,-69.1806031167179,-67.7959921384189,,,0,0,99.99,,,,,0,0,1490,1490,,False,,
2026-03-07T14:26:49,204.066,18.729041179000006,EVENT,DROP,[DROP] ARM_WAIT alt=-68.53 acc_med=10.302242474335381 dalt_med=0.095 baseline=-69.18 max_alt=-67.80,,,,,,,,,,,,,,,,,,,,,,,,,,,,,,,,,,,,
