pc_time,mono_time,elapsed_sec,kind,phase,message,alt_m,acc_x,acc_y,acc_z,acc_norm,mag_x,mag_y,mag_z,euler_heading,euler_roll,euler_pitch,drop_subphase,drop_acc_med,drop_dalt_med,drop_cond,drop_consec,drop_confirmed,drop_armed,drop_baseline_alt,drop_max_alt,gps_lat,gps_lon,gps_fixq,gps_nsat,gps_hdop,gps_dist_m,gps_goal_bearing_deg,gps_heading_deg,gps_err_deg,servo_fwd_cmd,servo_turn_cmd,servo_us18,servo_us12,recovery_mode,recovery_busy,camera_red_ratio,camera_status
2026-03-07T15:24:04,1043.447,,EVENT,,=== CanSat Integrated Program Start ===,,,,,,,,,,,,,,,,,,,,,,,,,,,,,,,,,,,,
2026-03-07T15:24:04,1043.659,,EVENT,,[TWELITE] soft UART open RX=GPIO14 TX=GPIO15 38400bps,,,,,,,,,,,,,,,,,,,,,,,,,,,,,,,,,,,,
2026-03-07T15:24:05,1044.560,0.0,EVENT,DROP,Phase: DROP,,,,,,,,,,,,,,,,,,,,,,,,,,,,,,,,,,,,
2026-03-07T15:24:05,1044.562,0.0,EVENT,DROP,[TIMER] force_gps=900s force_done=1500s,,,,,,,,,,,,,,,,,,,,,,,,,,,,,,,,,,,,
2026-03-07T15:24:05,1044.621,0.0023937329999625945,ROW,DROP,warmup,-68.97354727806136,-0.51,-2.79,9.59,10.000614981089912,72.1875,5.25,-115.5625,0.0,0.0,0.0,WARMUP,,,,0,False,False,-68.97354727806136,-68.97354727806136,,,0,0,,,,,,0,0,1490,1490,,False,,
2026-03-07T15:24:05,1044.774,0.16182395700002417,ROW,DROP,warmup,-68.9474039755178,-0.45,-2.79,9.56,9.968961831605135,74.0625,7.0625,-112.6875,0.0,-2.375,16.3125,WARMUP,,,,0,False,False,-68.97354727806136,-68.9474039755178,,,0,0,,,,,,0,0,1490,1490,,False,,
2026-03-07T15:24:05,1044.927,0.31489294299990434,ROW,DROP,warmup,-68.80948727715952,-0.44,-2.82,9.58,9.996119246987803,74.5,6.375,-114.375,0.0,-2.375,16.3125,WARMUP,,,,0,False,False,-68.97354727806136,-68.80948727715952,,,0,0,,,,,,0,0,1490,1490,,False,,
2026-03-07T15:24:06,1045.086,0.46797380299994984,ROW,DROP,warmup,-68.9593280961913,-0.45,-2.8000000000000003,9.53,9.943007593278805,74.5,7.5,-113.0625,0.0,-2.375,16.3125,WARMUP,9.968961831605135,,,0,False,False,-68.97354727806136,-68.80948727715952,,,0,0,,,,,,0,0,1490,1490,,False,,
2026-03-07T15:24:06,1045.238,0.6266221679998125,ROW,DROP,warmup,-69.13967697817787,-0.48,-2.8000000000000003,9.56,9.973163991432209,72.875,7.0625,-112.75,0.0625,-2.375,16.3125,WARMUP,9.971062911518672,,,0,False,False,-68.97354727806136,-68.80948727715952,,,0,0,,,,,,0,0,1490,1490,,False,,
2026-03-07T15:24:06,1045.392,0.7793610979999812,ROW,DROP,warmup,-69.04483286365199,-0.46,-2.77,9.59,9.992627282151576,74.0625,7.0625,-113.1875,0.0625,-2.375,16.3125,WARMUP,9.973163991432209,,,0,False,False,-68.97354727806136,-68.80948727715952,,,1,6,2.86,,,,,0,0,1490,1490,,False,,
2026-03-07T15:24:06,1045.549,0.9328289489999406,ROW,DROP,warmup,-69.07567402557741,-0.45,-2.82,9.56,9.977399460781351,74.875,6.0,-113.5625,0.0625,-2.375,16.3125,WARMUP,9.975281726106779,,,0,False,False,-68.97354727806136,-68.80948727715952,,,1,6,2.86,,,,,0,0,1490,1490,,False,,
2026-03-07T15:24:06,1045.699,1.0899780719998944,ROW,DROP,warmup,-69.07334554001481,-0.45,-2.82,9.57,9.986981525966693,74.0625,6.75,-113.1875,0.0625,-2.375,16.3125,WARMUP,9.977399460781351,,,0,False,False,-68.97354727806136,-68.80948727715952,,,1,6,2.86,,,,,0,0,1490,1490,,False,,
2026-03-07T15:24:06,1045.879,1.2661521689999518,ROW,DROP,warmup,-69.12538967714846,-0.44,-2.77,9.38,9.790347286996514,73.75,5.5625,-113.5625,0.0625,-2.375,16.3125,WARMUP,9.975281726106779,,,0,False,False,-68.97354727806136,-68.80948727715952,,,1,6,2.86,,,,,0,0,1490,1490,,False,,
2026-03-07T15:24:06,1046.040,1.4198259479999251,ROW,DROP,warmup,-68.987807285654,-0.43,-2.75,9.35,9.755506137561495,75.25,6.375,-114.5,0.0625,-2.375,16.3125,WARMUP,9.973163991432209,,,0,False,False,-68.97354727806136,-68.80948727715952,,,1,6,2.86,,,,,0,0,1490,1490,,False,,
2026-03-07T15:24:07,1046.192,1.5809491579998394,ROW,DROP,warmup,-69.10880326818061,-0.4,-2.77,9.4,9.807797917983425,73.75,7.0625,-113.5625,0.0625,-2.375,16.3125,WARMUP,9.971062911518672,,,0,False,False,-68.97354727806136,-68.80948727715952,,,1,6,2.86,,,,,0,0,1490,1490,,False,,
2026-03-07T15:24:07,1046.344,1.7330946600000061,EVENT,DROP,[DROP] ARM_WAIT alt=-69.08 acc_med=9.968961831605135 dalt_med=0.002 baseline=-68.97 max_alt=-68.81,,,,,,,,,,,,,,,,,,,,,,,,,,,,,,,,,,,,
2026-03-07T15:24:07,1046.344,1.7330946600000061,ROW,DROP,arm_wait,-69.07562681211549,-0.43,-2.74,9.370000000000001,9.771867784615182,73.375,6.75,-114.0625,0.0625,-2.375,16.3125,ARM_WAIT,9.968961831605135,0.0023284855626002354,False,0,False,False,-68.97354727806136,-68.80948727715952,,,1,5,2.86,,,,,0,0,1490,1490,,False,,
2026-03-07T15:24:07,1046.500,1.885252348999984,EVENT,DROP,[DROP] ARM_WAIT alt=-69.28 acc_med=9.943007593278805 dalt_med=-0.031 baseline=-68.97 max_alt=-68.81,,,,,,,,,,,,,,,,,,,,,,,,,,,,,,,,,,,,
2026-03-07T15:24:07,1046.501,1.885252348999984,ROW,DROP,arm_wait,-69.28216052153334,-0.43,-2.74,9.41,9.810229355117036,74.0625,7.0625,-113.25,0.0625,-2.375,16.3125,ARM_WAIT,9.943007593278805,-0.030841161925422966,False,0,False,False,-68.97354727806136,-68.80948727715952,,,1,5,2.86,,,,,0,0,1490,1490,,False,,
2026-03-07T15:24:07,1046.661,2.041854605000026,EVENT,DROP,[DROP] ARM_WAIT alt=-69.20 acc_med=9.827527664677419 dalt_med=0.002 baseline=-68.97 max_alt=-68.81,,,,,,,,,,,,,,,,,,,,,,,,,,,,,,,,,,,,
2026-03-07T15:24:07,1046.661,2.041854605000026,ROW,DROP,arm_wait,-69.19895290650436,-0.45,-2.73,9.43,9.827527664677419,73.0,7.875,-112.0,0.0625,-2.375,16.3125,ARM_WAIT,9.827527664677419,0.0023284855626002354,False,0,False,False,-68.97354727806136,-68.80948727715952,,,1,5,2.86,,,,,0,0,1490,1490,,False,,
2026-03-07T15:24:07,1046.844,2.2265750249998746,EVENT,DROP,[DROP] ARM_WAIT alt=-69.17 acc_med=9.810229355117036 dalt_med=0.029 baseline=-68.97 max_alt=-68.81,,,,,,,,,,,,,,,,,,,,,,,,,,,,,,,,,,,,
2026-03-07T15:24:07,1046.846,2.2265750249998746,ROW,DROP,arm_wait,-69.17043943779046,-0.41000000000000003,-2.7600000000000002,9.34,9.747886950513942,73.75,7.0625,-114.0625,0.0625,-2.375,16.3125,ARM_WAIT,9.810229355117036,0.028513468713896373,False,0,False,False,-68.97354727806136,-68.80948727715952,,,1,5,2.86,,,,,0,0,1490,1490,,False,,
2026-03-07T15:24:07,1047.000,2.387280719999808,EVENT,DROP,[DROP] ARM_WAIT alt=-69.30 acc_med=9.807797917983425 dalt_med=0.029 baseline=-68.97 max_alt=-68.81,,,,,,,,,,,,,,,,,,,,,,,,,,,,,,,,,,,,
2026-03-07T15:24:07,1047.001,2.387280719999808,ROW,DROP,arm_wait,-69.29641723222223,-0.43,-2.75,9.39,9.793850111166702,73.375,6.75,-113.6875,0.0625,-2.375,16.3125,ARM_WAIT,9.807797917983425,0.028513468713896373,False,0,False,False,-68.97354727806136,-68.80948727715952,,,1,5,2.86,,,,,0,0,1490,1490,,False,,
2026-03-07T15:24:08,1047.158,2.5422181219998947,EVENT,DROP,[DROP] ARM_WAIT alt=-69.11 acc_med=9.807797917983425 dalt_med=0.029 baseline=-68.97 max_alt=-68.81,,,,,,,,,,,,,,,,,,,,,,,,,,,,,,,,,,,,
2026-03-07T15:24:08,1047.159,2.5422181219998947,ROW,DROP,arm_wait,-69.11107852885876,-0.45,-2.74,9.41,9.811126336970695,73.75,7.5,-112.875,0.0625,-2.375,16.3125,ARM_WAIT,9.807797917983425,0.028513468713896373,False,0,False,False,-68.97354727806136,-68.80948727715952,,,1,5,2.86,,,,,0,0,1490,1490,,False,,
2026-03-07T15:24:08,1047.317,2.7003207000000202,EVENT,DROP,[DROP] ARM_WAIT alt=-69.48 acc_med=9.793850111166702 dalt_med=0.029 baseline=-68.97 max_alt=-68.81,,,,,,,,,,,,,,,,,,,,,,,,,,,,,,,,,,,,
2026-03-07T15:24:08,1047.317,2.7003207000000202,ROW,DROP,arm_wait,-69.47708848254472,-0.44,-2.72,9.39,9.785913345212087,75.25,6.375,-113.6875,0.0625,-2.375,16.3125,ARM_WAIT,9.793850111166702,0.028513468713896373,False,0,False,False,-68.97354727806136,-68.80948727715952,30.388160000000003,130.944506,1,5,2.86,,,,,0,0,1490,1490,,False,,
2026-03-07T15:24:08,1047.472,2.8586689419998947,EVENT,DROP,[DROP] ARM_WAIT alt=-69.09 acc_med=9.793850111166702 dalt_med=0.029 baseline=-68.97 max_alt=-68.81,,,,,,,,,,,,,,,,,,,,,,,,,,,,,,,,,,,,
2026-03-07T15:24:08,1047.473,2.8586689419998947,ROW,DROP,arm_wait,-69.09215096808987,-0.42,-2.8000000000000003,9.39,9.807573604108205,73.0,7.5,-114.5625,0.0625,-2.375,16.3125,ARM_WAIT,9.793850111166702,0.028513468713896373,False,0,False,False,-68.97354727806136,-68.80948727715952,30.388160000000003,130.944506,1,5,2.86,,,,,0,0,1490,1490,,False,,
2026-03-07T15:24:08,1047.627,3.013853487999995,EVENT,DROP,[DROP] ARM_WAIT alt=-69.26 acc_med=9.807573604108205 dalt_med=0.029 baseline=-68.97 max_alt=-68.81,,,,,,,,,,,,,,,,,,,,,,,,,,,,,,,,,,,,
2026-03-07T15:24:08,1047.627,3.013853487999995,ROW,DROP,arm_wait,-69.26090066056351,-0.42,-2.75,9.43,9.831775017767646,74.0625,6.0,-114.0625,0.0625,-2.375,16.3125,ARM_WAIT,9.807573604108205,0.028513468713896373,False,0,False,False,-68.97354727806136,-68.80948727715952,30.388160000000003,130.944506,1,5,2.86,,,,,0,0,1490,1490,,False,,
2026-03-07T15:24:08,1047.821,3.1938548089999585,EVENT,DROP,[DROP] ARM_WAIT alt=-69.23 acc_med=9.807797917983425 dalt_med=0.026 baseline=-68.97 max_alt=-68.81,,,,,,,,,,,,,,,,,,,,,,,,,,,,,,,,,,,,
2026-03-07T15:24:08,1047.822,3.1938548089999585,ROW,DROP,arm_wait,-69.23472201366157,-0.46,-2.72,9.450000000000001,9.844414660100417,74.0625,7.875,-115.75,0.0625,-2.375,16.3125,ARM_WAIT,9.807797917983425,0.026178646901939828,False,0,False,False,-68.97354727806136,-68.80948727715952,30.388160000000003,130.944506,1,5,2.86,,,,,0,0,1490,1490,,False,,
2026-03-07T15:24:08,1047.982,3.365357910999819,EVENT,DROP,[DROP] ARM_WAIT alt=-69.55 acc_med=9.807573604108205 dalt_med=-0.126 baseline=-68.97 max_alt=-68.81,,,,,,,,,,,,,,,,,,,,,,,,,,,,,,,,,,,,
2026-03-07T15:24:08,1047.985,3.365357910999819,ROW,DROP,arm_wait,-69.54837170557137,-0.44,-2.75,9.4,9.803881884233409,71.75,7.0625,-115.0,0.0625,-2.375,16.3125,ARM_WAIT,9.807573604108205,-0.12597779443176194,False,0,False,False,-68.97354727806136,-68.80948727715952,30.388160000000003,130.944506,1,5,2.86,,,,,0,0,1490,1490,,False,,
2026-03-07T15:24:09,1048.144,3.525944015999812,EVENT,DROP,[DROP] ARM_WAIT alt=-69.17 acc_med=9.807573604108205 dalt_med=0.026 baseline=-68.97 max_alt=-68.81,,,,,,,,,,,,,,,,,,,,,,,,,,,,,,,,,,,,
2026-03-07T15:24:09,1048.144,3.525944015999812,ROW,DROP,arm_wait,-69.1657719227174,-0.44,-2.72,9.41,9.805105812789579,74.5,6.75,-115.75,0.0625,-2.375,16.3125,ARM_WAIT,9.807573604108205,0.026178646901939828,False,0,False,False,-68.97354727806136,-68.80948727715952,30.388160000000003,130.944506,1,5,2.86,,,,,0,0,1490,1490,,False,,
2026-03-07T15:24:09,1048.302,3.6866989929999363,EVENT,DROP,[DROP] ARM_WAIT alt=-69.40 acc_med=9.806691592988942 dalt_med=-0.169 baseline=-68.97 max_alt=-68.81,,,,,,,,,,,,,,,,,,,,,,,,,,,,,,,,,,,,
2026-03-07T15:24:09,1048.302,3.6866989929999363,ROW,DROP,arm_wait,-69.39614752492884,-0.44,-2.7600000000000002,9.4,9.806691592988942,68.75,6.75,-115.375,0.0625,-2.375,16.3125,ARM_WAIT,9.806691592988942,-0.16874969247363936,False,0,False,False,-68.97354727806136,-68.80948727715952,30.388160000000003,130.944506,1,5,2.86,,,,,0,0,1490,1490,,False,,
2026-03-07T15:24:09,1048.461,3.844169706999992,EVENT,DROP,[DROP] ARM_WAIT alt=-69.12 acc_med=9.805105812789579 dalt_med=0.026 baseline=-68.97 max_alt=-68.81,,,,,,,,,,,,,,,,,,,,,,,,,,,,,,,,,,,,
2026-03-07T15:24:09,1048.462,3.844169706999992,ROW,DROP,arm_wait,-69.12300087599743,-0.41000000000000003,-2.75,9.370000000000001,9.7738170639725,67.25,6.0,-115.0,0.0625,-2.375,16.3125,ARM_WAIT,9.805105812789579,0.026178646901939828,False,0,False,False,-68.97354727806136,-68.80948727715952,30.388160000000003,130.944506,1,5,2.86,,,,,0,0,1490,1490,,False,,
2026-03-07T15:24:09,1048.623,4.00413972299998,EVENT,DROP,[DROP] ARM_WAIT alt=-69.10 acc_med=9.805105812789579 dalt_med=0.019 baseline=-68.97 max_alt=-68.81,,,,,,,,,,,,,,,,,,,,,,,,,,,,,,,,,,,,
2026-03-07T15:24:09,1048.623,4.00413972299998,ROW,DROP,arm_wait,-69.10407153159457,-0.44,-2.72,9.41,9.805105812789579,74.5,6.375,-115.0,0.0625,-2.375,16.3125,ARM_WAIT,9.805105812789579,0.018929344402863535,False,0,False,False,-68.97354727806136,-68.80948727715952,30.388160000000003,130.944506,1,5,2.86,,,,,0,0,1490,1490,,False,,
2026-03-07T15:24:09,1048.810,4.188424823999867,EVENT,DROP,[DROP] ARM_WAIT alt=-69.34 acc_med=9.805105812789579 dalt_med=0.019 baseline=-68.97 max_alt=-68.81,,,,,,,,,,,,,,,,,,,,,,,,,,,,,,,,,,,,
2026-03-07T15:24:09,1048.811,4.188424823999867,ROW,DROP,arm_wait,-69.34145537027472,-0.44,-2.7600000000000002,9.39,9.797106715760526,74.5,6.375,-115.0,0.0625,-2.375,16.3125,ARM_WAIT,9.805105812789579,0.018929344402863535,False,0,False,False,-68.97354727806136,-68.80948727715952,30.388160000000003,130.944506,1,5,2.86,,,,,0,0,1490,1490,,False,,
2026-03-07T15:24:09,1048.977,4.352902583999821,EVENT,DROP,[DROP] ARM_WAIT alt=-69.24 acc_med=9.805105812789579 dalt_med=0.019 baseline=-68.97 max_alt=-68.81,,,,,,,,,,,,,,,,,,,,,,,,,,,,,,,,,,,,
2026-03-07T15:24:09,1048.979,4.352902583999821,ROW,DROP,arm_wait,-69.24165525308757,-0.43,-2.74,9.42,9.819821790643656,65.0625,6.375,-115.875,0.0625,-2.375,16.3125,ARM_WAIT,9.805105812789579,0.018929344402863535,False,0,False,False,-68.97354727806136,-68.80948727715952,30.388160000000003,130.944506,1,5,2.86,,,,,0,0,1490,1490,,False,,
2026-03-07T15:24:10,1049.133,4.519795228000021,EVENT,DROP,[DROP] ARM_WAIT alt=-69.10 acc_med=9.806691592988942 dalt_med=0.100 baseline=-68.97 max_alt=-68.81,,,,,,,,,,,,,,,,,,,,,,,,,,,,,,,,,,,,
2026-03-07T15:24:10,1049.133,4.519795228000021,ROW,DROP,arm_wait,-69.0967435304837,-0.44,-2.7600000000000002,9.4,9.806691592988942,73.75,6.0,-114.1875,0.0625,-2.375,16.3125,ARM_WAIT,9.806691592988942,0.09980011718714366,False,0,False,False,-68.97354727806136,-68.80948727715952,30.388160000000003,130.944506,1,5,2.86,,,,,0,0,1490,1490,,False,,
2026-03-07T15:24:10,1049.293,4.67391676599982,EVENT,DROP,[DROP] ARM_WAIT alt=-69.56 acc_med=9.805105812789579 dalt_med=0.019 baseline=-68.97 max_alt=-68.81,,,,,,,,,,,,,,,,,,,,,,,,,,,,,,,,,,,,
2026-03-07T15:24:10,1049.293,4.67391676599982,ROW,DROP,arm_wait,-69.56022205050185,-0.44,-2.74,9.39,9.791491204101652,62.75,7.0625,-114.5625,0.0625,-2.375,16.3125,ARM_WAIT,9.805105812789579,0.018929344402863535,False,0,False,False,-68.97354727806136,-68.80948727715952,30.388160000000003,130.944506,1,5,2.86,,,,,0,0,1490,1490,,False,,
2026-03-07T15:24:10,1049.444,4.834008161999918,EVENT,DROP,[DROP] ARM_WAIT alt=-69.26 acc_med=9.805105812789579 dalt_med=0.100 baseline=-68.97 max_alt=-68.81,,,,,,,,,,,,,,,,,,,,,,,,,,,,,,,,,,,,
2026-03-07T15:24:10,1049.445,4.834008161999918,ROW,DROP,arm_wait,-69.26315541160656,-0.42,-2.77,9.36,9.770307057610829,73.75,6.375,-114.1875,0.0625,-2.375,16.3125,ARM_WAIT,9.805105812789579,0.09980011718714366,False,0,False,False,-68.97354727806136,-68.80948727715952,30.388160000000003,130.944506,1,5,2.86,,,,,0,0,1490,1490,,False,,
2026-03-07T15:24:10,1049.596,4.985653052999851,EVENT,DROP,[DROP] ARM_WAIT alt=-69.38 acc_med=9.805105812789579 dalt_med=0.019 baseline=-68.97 max_alt=-68.81,,,,,,,,,,,,,,,,,,,,,,,,,,,,,,,,,,,,
2026-03-07T15:24:10,1049.596,4.985653052999851,ROW,DROP,arm_wait,-69.38414181144633,-0.44,-2.7800000000000002,9.41,9.821919364360513,65.0625,7.5,-114.1875,0.0625,-2.375,16.3125,ARM_WAIT,9.805105812789579,0.018929344402863535,False,0,False,False,-68.97354727806136,-68.80948727715952,30.388160000000003,130.944506,1,5,2.86,,,,,0,0,1490,1490,,False,,
2026-03-07T15:24:10,1049.772,5.160673132999818,EVENT,DROP,[DROP] ARM_WAIT alt=-69.47 acc_med=9.805105812789579 dalt_med=-0.091 baseline=-68.97 max_alt=-68.81,,,,,,,,,,,,,,,,,,,,,,,,,,,,,,,,,,,,
2026-03-07T15:24:10,1049.773,5.160673132999818,ROW,DROP,arm_wait,-69.47467814009875,-0.43,-2.7600000000000002,9.39,9.79666269706169,66.1875,7.875,-114.1875,0.0625,-2.375,16.3125,ARM_WAIT,9.805105812789579,-0.09053632865241923,False,0,False,False,-68.97354727806136,-68.80948727715952,30.388160000000003,130.944506,1,5,2.86,,,,,0,0,1490,1490,,False,,
2026-03-07T15:24:10,1049.933,5.313818157000014,EVENT,DROP,[DROP] ARM_WAIT alt=-69.31 acc_med=9.797106715760526 dalt_med=0.100 baseline=-68.97 max_alt=-68.81,,,,,,,,,,,,,,,,,,,,,,,,,,,,,,,,,,,,
2026-03-07T15:24:10,1049.933,5.313818157000014,ROW,DROP,arm_wait,-69.31051211718555,-0.43,-2.72,9.370000000000001,9.766278718119816,74.5,5.5625,-113.75,0.0625,-2.375,16.3125,ARM_WAIT,9.797106715760526,0.09980011718714366,False,0,False,False,-68.97354727806136,-68.80948727715952,30.388160000000003,130.944506,1,5,2.86,,,,,0,0,1490,1490,,False,,
2026-03-07T15:24:11,1050.092,5.475538169999936,EVENT,DROP,[DROP] ARM_WAIT alt=-69.35 acc_med=9.79666269706169 dalt_med=-0.043 baseline=-68.97 max_alt=-68.81,,,,,,,,,,,,,,,,,,,,,,,,,,,,,,,,,,,,
2026-03-07T15:24:11,1050.093,5.475538169999936,ROW,DROP,arm_wait,-69.35328547667255,-0.44,-2.72,9.4,9.795509175127142,67.25,7.5,-115.0625,0.0625,-2.375,16.3125,ARM_WAIT,9.79666269706169,-0.04277335948700056,False,0,False,False,-68.97354727806136,-68.80948727715952,30.388160000000003,130.944506,1,5,2.86,,,,,0,0,1490,1490,,False,,
2026-03-07T15:24:11,1050.251,5.63431788999992,EVENT,DROP,[DROP] ARM_WAIT alt=-69.55 acc_med=9.797106715760526 dalt_med=-0.091 baseline=-68.97 max_alt=-68.81,,,,,,,,,,,,,,,,,,,,,,,,,,,,,,,,,,,,
2026-03-07T15:24:11,1050.253,5.63431788999992,ROW,DROP,arm_wait,-69.54821047381627,-0.4,-2.75,9.41,9.81175825221963,74.5,6.75,-115.375,0.0625,-2.375,16.3125,ARM_WAIT,9.797106715760526,-0.09053632865241923,False,0,False,False,-68.97354727806136,-68.80948727715952,30.388160000000003,130.944506,1,5,2.86,,,,,0,0,1490,1490,,False,,
2026-03-07T15:24:11,1050.414,5.794066835999956,EVENT,DROP,[DROP] ARM_WAIT alt=-69.29 acc_med=9.797106715760526 dalt_med=-0.043 baseline=-68.97 max_alt=-68.81,,,,,,,,,,,,,,,,,,,,,,,,,,,,,,,,,,,,
2026-03-07T15:24:11,1050.417,5.794066835999956,ROW,DROP,arm_wait,-69.29391177462308,-0.43,-2.74,9.41,9.810229355117036,74.875,6.0,-115.0625,0.0625,-2.375,16.3125,ARM_WAIT,9.797106715760526,-0.04277335948700056,False,0,False,False,-68.97354727806136,-68.80948727715952,30.388160000000003,130.944506,1,5,2.86,,,,,0,0,1490,1490,,False,,
2026-03-07T15:24:11,1050.573,5.95871371699991,EVENT,DROP,[DROP] ARM_WAIT alt=-69.17 acc_med=9.79666269706169 dalt_med=-0.043 baseline=-68.97 max_alt=-68.81,,,,,,,,,,,,,,,,,,,,,,,,,,,,,,,,,,,,
2026-03-07T15:24:11,1050.575,5.95871371699991,ROW,DROP,arm_wait,-69.16793303176587,-0.42,-2.75,9.38,9.783828493999678,71.875,9.375,-115.5,0.0625,-2.375,16.3125,ARM_WAIT,9.79666269706169,-0.04277335948700056,False,0,False,False,-68.97354727806136,-68.80948727715952,30.388160000000003,130.944506,1,5,2.86,,,,,0,0,1490,1490,,False,,
2026-03-07T15:24:11,1050.768,6.142270855999868,EVENT,DROP,[DROP] ARM_WAIT alt=-69.44 acc_med=9.795509175127142 dalt_med=-0.043 baseline=-68.97 max_alt=-68.81,,,,,,,,,,,,,,,,,,,,,,,,,,,,,,,,,,,,
2026-03-07T15:24:11,1050.769,6.142270855999868,ROW,DROP,arm_wait,-69.43649034172742,-0.42,-2.72,9.39,9.785034491507938,72.25,8.25,-115.875,0.0625,-2.375,16.3125,ARM_WAIT,9.795509175127142,-0.04277335948700056,False,0,False,False,-68.97354727806136,-68.80948727715952,30.388160000000003,130.944506,1,5,2.86,,,,,0,0,1490,1490,,False,,
2026-03-07T15:24:11,1050.929,6.309879671999852,EVENT,DROP,[DROP] ARM_WAIT alt=-69.49 acc_med=9.795509175127142 dalt_med=-0.043 baseline=-68.97 max_alt=-68.81,,,,,,,,,,,,,,,,,,,,,,,,,,,,,,,,,,,,
2026-03-07T15:24:11,1050.932,6.309879671999852,ROW,DROP,arm_wait,-69.49117940450257,-0.47000000000000003,-2.74,9.41,9.81206400305257,74.0625,6.75,-113.75,0.0625,-2.375,16.3125,ARM_WAIT,9.795509175127142,-0.04277335948700056,False,0,False,False,-68.97354727806136,-68.80948727715952,30.388160000000003,130.944506,1,5,2.86,,,,,0,0,1490,1490,,False,,
2026-03-07T15:24:12,1051.094,6.473480666999876,EVENT,DROP,[DROP] ARM_WAIT alt=-69.39 acc_med=9.79666269706169 dalt_med=-0.043 baseline=-68.97 max_alt=-68.81,,,,,,,,,,,,,,,,,,,,,,,,,,,,,,,,,,,,
2026-03-07T15:24:12,1051.095,6.473480666999876,ROW,DROP,arm_wait,-69.39137431033839,-0.43,-2.72,9.43,9.823858712339057,74.0625,9.0625,-113.375,0.0625,-2.375,16.3125,ARM_WAIT,9.79666269706169,-0.04277335948700056,False,0,False,False,-68.97354727806136,-68.80948727715952,30.388160000000003,130.944506,1,5,2.86,,,,,0,0,1490,1490,,False,,
2026-03-07T15:24:12,1051.246,6.6365345819999675,EVENT,DROP,[DROP] ARM_WAIT alt=-69.42 acc_med=9.800270404432727 dalt_med=-0.029 baseline=-68.97 max_alt=-68.81,,,,,,,,,,,,,,,,,,,,,,,,,,,,,,,,,,,,
2026-03-07T15:24:12,1051.247,6.6365345819999675,ROW,DROP,arm_wait,-69.41989014541578,-0.47000000000000003,-2.8000000000000003,9.38,9.800270404432727,74.875,6.0,-113.75,0.0625,-2.375,16.3125,ARM_WAIT,9.800270404432727,-0.028515835077385532,False,0,False,False,-68.97354727806136,-68.80948727715952,30.388160000000003,130.944506,1,5,3.35,,,,,0,0,1490,1490,,False,,
2026-03-07T15:24:12,1051.397,6.787768772999925,EVENT,DROP,[DROP] ARM_WAIT alt=-69.02 acc_med=9.79666269706169 dalt_med=0.100 baseline=-68.97 max_alt=-68.81,,,,,,,,,,,,,,,,,,,,,,,,,,,,,,,,,,,,
2026-03-07T15:24:12,1051.397,6.787768772999925,ROW,DROP,arm_wait,-69.02066161966101,-0.44,-2.72,9.370000000000001,9.766724118147293,74.0625,8.6875,-115.0625,0.0625,-2.375,16.3125,ARM_WAIT,9.79666269706169,0.09980509416418215,False,0,False,False,-68.97354727806136,-68.80948727715952,30.388160000000003,130.944506,1,5,3.35,,,,,0,0,1490,1490,,False,,
2026-03-07T15:24:12,1051.547,6.938376275999872,EVENT,DROP,[DROP] ARM_WAIT alt=-69.44 acc_med=9.795509175127142 dalt_med=-0.029 baseline=-68.97 max_alt=-68.81,,,,,,,,,,,,,,,,,,,,,,,,,,,,,,,,,,,,
2026-03-07T15:24:12,1051.548,6.938376275999872,ROW,DROP,arm_wait,-69.43872182535559,-0.42,-2.75,9.38,9.783828493999678,73.375,6.375,-113.75,0.0625,-2.375,16.3125,ARM_WAIT,9.795509175127142,-0.028515835077385532,False,0,False,False,-68.97354727806136,-68.80948727715952,30.388160000000003,130.944506,1,5,3.35,,,,,0,0,1490,1490,,False,,
2026-03-07T15:24:12,1051.705,7.088851598000019,EVENT,DROP,[DROP] ARM_WAIT alt=-69.31 acc_med=9.800270404432727 dalt_med=-0.029 baseline=-68.97 max_alt=-68.81,,,,,,,,,,,,,,,,,,,,,,,,,,,,,,,,,,,,
2026-03-07T15:24:12,1051.705,7.088851598000019,ROW,DROP,arm_wait,-69.3127432686832,-0.43,-2.74,9.4,9.800637734351781,74.5,9.0625,-115.875,0.0625,-2.375,16.3125,ARM_WAIT,9.800270404432727,-0.028515835077385532,False,0,False,False,-68.97354727806136,-68.80948727715952,30.388160000000003,130.944506,1,5,3.35,,,,,0,0,1490,1490,,False,,
2026-03-07T15:24:12,1051.883,7.269907543999807,EVENT,DROP,[DROP] ARM_WAIT alt=-69.31 acc_med=9.800270404432727 dalt_med=0.000 baseline=-68.97 max_alt=-68.81,,,,,,,,,,,,,,,,,,,,,,,,,,,,,,,,,,,,
2026-03-07T15:24:12,1051.884,7.269907543999807,ROW,DROP,arm_wait,-69.3127432686832,-0.4,-2.73,9.36,9.758201678588119,74.5,9.0625,-115.5,0.0625,-2.375,16.3125,ARM_WAIT,9.800270404432727,0.0,False,0,False,False,-68.97354727806136,-68.80948727715952,30.388160000000003,130.944506,1,5,3.35,,,,,0,0,1490,1490,,False,,
2026-03-07T15:24:12,1052.037,7.424755515000015,EVENT,DROP,[DROP] ARM_WAIT alt=-69.43 acc_med=9.800270404432727 dalt_med=0.000 baseline=-68.97 max_alt=-68.81,,,,,,,,,,,,,,,,,,,,,,,,,,,,,,,,,,,,
2026-03-07T15:24:12,1052.037,7.424755515000015,ROW,DROP,arm_wait,-69.42680877673934,-0.48,-2.73,9.41,9.809760445597028,74.5,5.5625,-114.25,0.0625,-2.375,16.3125,ARM_WAIT,9.800270404432727,0.0,False,0,False,False,-68.97354727806136,-68.80948727715952,30.388160000000003,130.944506,1,5,3.35,,,,,0,0,1490,1490,,False,,
2026-03-07T15:24:13,1052.194,7.578570532999947,EVENT,DROP,[DROP] ARM_WAIT alt=-69.35 acc_med=9.785034491507938 dalt_med=0.000 baseline=-68.97 max_alt=-68.81,,,,,,,,,,,,,,,,,,,,,,,,,,,,,,,,,,,,
2026-03-07T15:24:13,1052.195,7.578570532999947,ROW,DROP,arm_wait,-69.34847781983675,-0.44,-2.73,9.38,9.779105276046476,75.25,7.875,-114.25,0.0625,-2.375,16.3125,ARM_WAIT,9.785034491507938,0.0,False,0,False,False,-68.97354727806136,-68.80948727715952,30.388160000000003,130.944506,1,5,3.35,,,,,0,0,1490,1490,,False,,
2026-03-07T15:24:13,1052.347,7.735813937999865,EVENT,DROP,[DROP] ARM_WAIT alt=-69.49 acc_med=9.785034491507938 dalt_med=0.000 baseline=-68.97 max_alt=-68.81,,,,,,,,,,,,,,,,,,,,,,,,,,,,,,,,,,,,
2026-03-07T15:24:13,1052.347,7.735813937999865,ROW,DROP,arm_wait,-69.49340897545193,-0.44,-2.73,9.370000000000001,9.769513805712137,75.25,5.5625,-113.375,0.0625,-2.375,16.3125,ARM_WAIT,9.785034491507938,0.0,False,0,False,False,-68.97354727806136,-68.80948727715952,30.388160000000003,130.944506,1,5,2.86,,,,,0,0,1490,1490,,False,,
2026-03-07T15:24:13,1052.497,7.888228829999889,EVENT,DROP,[DROP] ARM_WAIT alt=-69.36 acc_med=9.800270404432727 dalt_med=0.000 baseline=-68.97 max_alt=-68.81,,,,,,,,,,,,,,,,,,,,,,,,,,,,,,,,,,,,
2026-03-07T15:24:13,1052.498,7.888228829999889,ROW,DROP,arm_wait,-69.35773614437075,-0.44,-2.77,9.4,9.8095106911609,75.25,7.0625,-115.0625,0.0625,-2.375,16.3125,ARM_WAIT,9.800270404432727,0.0,False,0,False,False,-68.97354727806136,-68.80948727715952,30.388160000000003,130.944506,1,5,2.86,,,,,0,0,1490,1490,,False,,
2026-03-07T15:24:13,1052.650,8.03891177599985,EVENT,DROP,[DROP] ARM_WAIT alt=-69.07 acc_med=9.793416155765057 dalt_med=0.078 baseline=-68.97 max_alt=-68.81,,,,,,,,,,,,,,,,,,,,,,,,,,,,,,,,,,,,
2026-03-07T15:24:13,1052.651,8.03891177599985,ROW,DROP,arm_wait,-69.07255926354523,-0.42,-2.75,9.39,9.793416155765057,74.0625,6.375,-113.375,0.0625,-2.375,16.3125,ARM_WAIT,9.793416155765057,0.07833095690259029,False,0,False,False,-68.97354727806136,-68.80948727715952,30.388160000000003,130.944506,1,5,2.86,,,,,0,0,1490,1490,,False,,
2026-03-07T15:24:13,1052.833,8.215685937999979,EVENT,DROP,[DROP] ARM_WAIT alt=-69.34 acc_med=9.783828493999678 dalt_med=0.000 baseline=-68.97 max_alt=-68.81,,,,,,,,,,,,,,,,,,,,,,,,,,,,,,,,,,,,
2026-03-07T15:24:13,1052.834,8.215685937999979,ROW,DROP,arm_wait,-69.33656704731163,-0.41000000000000003,-2.75,9.35,9.75464504736077,74.875,6.75,-114.25,0.0625,-2.375,16.3125,ARM_WAIT,9.783828493999678,0.0,False,0,False,False,-68.97354727806136,-68.80948727715952,30.388160000000003,130.944506,1,5,2.86,,,,,0,0,1490,1490,,False,,
2026-03-07T15:24:13,1052.989,8.374760034000019,EVENT,DROP,[DROP] ARM_WAIT alt=-69.28 acc_med=9.783828493999678 dalt_med=0.055 baseline=-68.97 max_alt=-68.81,,,,,,,,,,,,,,,,,,,,,,,,,,,,,,,,,,,,
2026-03-07T15:24:13,1052.989,8.374760034000019,ROW,DROP,arm_wait,-69.28188035975886,-0.43,-2.79,9.39,9.805156806497283,73.75,6.75,-113.75,0.0625,-2.375,16.3125,ARM_WAIT,9.783828493999678,0.05468668755277406,False,0,False,False,-68.97354727806136,-68.80948727715952,30.388160000000003,130.944506,1,5,2.86,,,,,0,0,1490,1490,,False,,
2026-03-07T15:24:14,1053.143,8.530458886999895,EVENT,DROP,[DROP] ARM_WAIT alt=-69.40 acc_med=9.793416155765057 dalt_med=0.055 baseline=-68.97 max_alt=-68.81,,,,,,,,,,,,,,,,,,,,,,,,,,,,,,,,,,,,
2026-03-07T15:24:14,1053.143,8.530458886999895,ROW,DROP,arm_wait,-69.40051202863827,-0.46,-2.77,9.44,9.848761343438067,73.75,7.0625,-112.5625,0.0625,-2.375,16.3125,ARM_WAIT,9.793416155765057,0.05468668755277406,False,0,False,False,-68.97354727806136,-68.80948727715952,30.388160000000003,130.944506,1,5,2.86,,,,,0,0,1490,1490,,False,,
2026-03-07T15:24:14,1053.303,8.683839959999887,EVENT,DROP,[DROP] ARM_WAIT alt=-69.19 acc_med=9.793416155765057 dalt_med=0.055 baseline=-68.97 max_alt=-68.81,,,,,,,,,,,,,,,,,,,,,,,,,,,,,,,,,,,,
2026-03-07T15:24:14,1053.304,8.683839959999887,ROW,DROP,arm_wait,-69.18663091726596,-0.44,-2.74,9.38,9.781901655608689,74.5,7.0625,-115.5625,0.0625,-2.375,16.3125,ARM_WAIT,9.793416155765057,0.05468668755277406,False,0,False,False,-68.97354727806136,-68.80948727715952,30.388160000000003,130.944506,1,5,2.85,,,,,0,0,1490,1490,,False,,
2026-03-07T15:24:14,1053.454,8.844746706000024,EVENT,DROP,[DROP] ARM_WAIT alt=-69.28 acc_med=9.786832991320534 dalt_med=0.055 baseline=-68.97 max_alt=-68.81,,,,,,,,,,,,,,,,,,,,,,,,,,,,,,,,,,,,
2026-03-07T15:24:14,1053.454,8.844746706000024,ROW,DROP,arm_wait,-69.28409257541729,-0.46,-2.72,9.39,9.786832991320534,74.5,5.5625,-114.75,0.0625,-2.375,16.3125,ARM_WAIT,9.786832991320534,0.05468668755277406,False,0,False,False,-68.97354727806136,-68.80948727715952,30.388160000000003,130.944506,1,5,2.85,,,,,0,0,1490,1490,,False,,
2026-03-07T15:24:14,1053.604,8.994878094999876,EVENT,DROP,[DROP] ARM_WAIT alt=-69.52 acc_med=9.793416155765057 dalt_med=-0.097 baseline=-68.97 max_alt=-68.81,,,,,,,,,,,,,,,,,,,,,,,,,,,,,,,,,,,,
2026-03-07T15:24:14,1053.604,8.994878094999876,ROW,DROP,arm_wait,-69.52414158494528,-0.46,-2.77,9.39,9.800846902181465,74.875,6.375,-122.25,0.0625,-2.375,16.3125,ARM_WAIT,9.793416155765057,-0.09746165815133168,False,0,False,False,-68.97354727806136,-68.80948727715952,30.388160000000003,130.944506,1,5,2.85,,,,,0,0,1490,1490,,False,,
2026-03-07T15:24:14,1053.780,9.168564943999854,EVENT,DROP,[DROP] ARM_WAIT alt=-69.55 acc_med=9.793416155765057 dalt_med=-0.097 baseline=-68.97 max_alt=-68.81,,,,,,,,,,,,,,,,,,,,,,,,,,,,,,,,,,,,
2026-03-07T15:24:14,1053.780,9.168564943999854,ROW,DROP,arm_wait,-69.552658877875,-0.47000000000000003,-2.74,9.42,9.821654646748684,74.0625,6.0,-113.875,0.0625,-2.375,16.3125,ARM_WAIT,9.793416155765057,-0.09746165815133168,False,0,False,False,-68.97354727806136,-68.80948727715952,30.388160000000003,130.944506,1,5,2.85,,,,,0,0,1490,1490,,False,,
2026-03-07T15:24:14,1053.936,9.321125119999806,EVENT,DROP,[DROP] ARM_WAIT alt=-69.23 acc_med=9.793416155765057 dalt_med=-0.029 baseline=-68.97 max_alt=-68.81,,,,,,,,,,,,,,,,,,,,,,,,,,,,,,,,,,,,
2026-03-07T15:24:14,1053.936,9.321125119999806,ROW,DROP,arm_wait,-69.23160727552876,-0.44,-2.73,9.36,9.759923155435189,74.875,6.75,-112.1875,0.0625,-2.375,16.3125,ARM_WAIT,9.793416155765057,-0.028517292929720384,False,0,False,False,-68.97354727806136,-68.80948727715952,30.388160000000003,130.944506,1,5,2.85,,,,,0,0,1490,1490,,False,,
2026-03-07T15:24:15,1054.091,9.477165801999945,EVENT,DROP,[DROP] ARM_WAIT alt=-69.73 acc_med=9.800846902181465 dalt_med=-0.097 baseline=-68.97 max_alt=-68.81,,,,,,,,,,,,,,,,,,,,,,,,,,,,,,,,,,,,
2026-03-07T15:24:15,1054.092,9.477165801999945,ROW,DROP,arm_wait,-69.73067037250823,-0.44,-2.75,9.41,9.813470334188615,74.5,6.375,-115.875,0.0625,-2.375,16.3125,ARM_WAIT,9.800846902181465,-0.09746165815133168,False,0,False,False,-68.97354727806136,-68.80948727715952,30.388160000000003,130.944506,1,5,2.85,,,,,0,0,1490,1490,,False,,
2026-03-07T15:24:15,1054.246,9.633441032999826,EVENT,DROP,[DROP] ARM_WAIT alt=-69.55 acc_med=9.800846902181465 dalt_med=-0.029 baseline=-68.97 max_alt=-68.81,,,,,,,,,,,,,,,,,,,,,,,,,,,,,,,,,,,,
2026-03-07T15:24:15,1054.247,9.633441032999826,ROW,DROP,arm_wait,-69.54530676472075,1.18,-2.19,11.18,11.453423069109077,44.5625,4.75,-67.6875,0.5,-1.8125,16.3125,ARM_WAIT,9.800846902181465,-0.028517292929720384,False,0,False,False,-68.97354727806136,-68.80948727715952,30.38809983333333,130.94443583333333,1,5,2.85,,,,,0,0,1490,1490,,False,,
2026-03-07T15:24:15,1054.403,9.787857606999978,EVENT,DROP,[DROP] ARM_WAIT alt=-69.36 acc_med=9.805156806497283 dalt_med=-0.029 baseline=-68.97 max_alt=-68.81,,,,,,,,,,,,,,,,,,,,,,,,,,,,,,,,,,,,
2026-03-07T15:24:15,1054.403,9.787857606999978,ROW,DROP,arm_wait,-69.3649438609048,-1.31,-2.79,9.44,9.930448126847045,45.6875,3.875,-68.0625,0.875,-2.5,16.3125,ARM_WAIT,9.805156806497283,-0.028517292929720384,False,0,False,False,-68.97354727806136,-68.80948727715952,30.38809983333333,130.94443583333333,1,6,2.58,,,,,0,0,1490,1490,,False,,
2026-03-07T15:24:15,1054.553,9.944296635,EVENT,DROP,[DROP] ARM_WAIT alt=-69.13 acc_med=9.805156806497283 dalt_med=0.180 baseline=-68.97 max_alt=-68.81,,,,,,,,,,,,,,,,,,,,,,,,,,,,,,,,,,,,
2026-03-07T15:24:15,1054.554,9.944296635,ROW,DROP,arm_wait,-69.12943684453256,-0.22,-2.77,9.23,9.639201211718738,45.25,4.5,-67.6875,0.9375,-2.1875,16.3125,ARM_WAIT,9.805156806497283,0.1803629038159471,False,0,False,False,-68.97354727806136,-68.80948727715952,30.38809983333333,130.94443583333333,1,6,2.58,,,,,0,0,1490,1490,,False,,
2026-03-07T15:24:15,1054.704,10.094532371000014,EVENT,DROP,[DROP] ARM_WAIT alt=-69.63 acc_med=9.800846902181465 dalt_med=0.180 baseline=-68.97 max_alt=-68.81,,,,,,,,,,,,,,,,,,,,,,,,,,,,,,,,,,,,
2026-03-07T15:24:15,1054.704,10.094532371000014,ROW,DROP,arm_wait,-69.62850864334726,-0.41000000000000003,-2.72,9.35,9.746230040379716,44.25,5.25,-68.875,1.0,-2.25,16.3125,ARM_WAIT,9.800846902181465,0.1803629038159471,False,0,False,False,-68.97354727806136,-68.80948727715952,30.38809983333333,130.94443583333333,1,6,2.58,,,,,0,0,1490,1490,,False,,
2026-03-07T15:24:15,1054.880,10.267794483999978,EVENT,DROP,[DROP] ARM_WAIT alt=-69.35 acc_med=9.786832991320534 dalt_med=0.185 baseline=-68.97 max_alt=-68.81,,,,,,,,,,,,,,,,,,,,,,,,,,,,,,,,,,,,
2026-03-07T15:24:15,1054.881,10.267794483999978,ROW,DROP,arm_wait,-69.35068486253928,-0.38,-2.7600000000000002,9.36,9.765838417667988,44.25,3.375,-67.5625,1.0,-2.1875,16.3125,ARM_WAIT,9.786832991320534,0.18536360778747962,False,0,False,False,-68.97354727806136,-68.80948727715952,30.38809983333333,130.94443583333333,1,6,2.58,,,,,0,0,1490,1490,,False,,
2026-03-07T15:24:15,1055.036,10.421954872000015,EVENT,DROP,[DROP] ARM_WAIT alt=-69.30 acc_med=9.786832991320534 dalt_med=0.180 baseline=-68.97 max_alt=-68.81,,,,,,,,,,,,,,,,,,,,,,,,,,,,,,,,,,,,
2026-03-07T15:24:15,1055.037,10.421954872000015,ROW,DROP,arm_wait,-69.30290341210518,-0.29,-2.75,9.32,9.721573946640534,45.375,4.1875,-66.0,1.0625,-2.1875,16.3125,ARM_WAIT,9.786832991320534,0.1803629038159471,False,0,False,False,-68.97354727806136,-68.80948727715952,30.38809983333333,130.94443583333333,1,6,2.58,,,,,0,0,1490,1490,,False,,
2026-03-07T15:24:16,1055.190,10.578092629999901,EVENT,DROP,[DROP] ARM_WAIT alt=-69.49 acc_med=9.769969293708145 dalt_med=0.180 baseline=-68.97 max_alt=-68.81,,,,,,,,,,,,,,,,,,,,,,,,,,,,,,,,,,,,
2026-03-07T15:24:16,1055.190,10.578092629999901,ROW,DROP,arm_wait,-69.48827117000822,-0.45,-2.73,9.370000000000001,9.769969293708145,46.0625,5.6875,-70.1875,1.125,-2.1875,16.3125,ARM_WAIT,9.769969293708145,0.1803629038159471,False,0,False,False,-68.97354727806136,-68.80948727715952,30.38809983333333,130.94443583333333,1,6,2.58,,,,,0,0,1490,1490,,False,,
2026-03-07T15:24:16,1055.343,10.731042013999968,EVENT,DROP,[DROP] ARM_WAIT alt=-69.81 acc_med=9.769969293708145 dalt_med=0.048 baseline=-68.97 max_alt=-68.81,,,,,,,,,,,,,,,,,,,,,,,,,,,,,,,,,,,,
2026-03-07T15:24:16,1055.343,10.731042013999968,ROW,DROP,arm_wait,-69.81152192239495,-0.39,-2.74,9.42,9.818151557192424,44.875,5.25,-66.375,1.1875,-2.1875,16.3125,ARM_WAIT,9.769969293708145,0.0477814504341012,False,0,False,False,-68.97354727806136,-68.80948727715952,30.38809983333333,130.94443583333333,1,6,3.12,,,,,0,0,1490,1490,,False,,
2026-03-07T15:24:16,1055.504,10.883942806999812,EVENT,DROP,[DROP] ARM_WAIT alt=-69.83 acc_med=9.769969293708145 dalt_med=-0.019 baseline=-68.97 max_alt=-68.81,,,,,,,,,,,,,,,,,,,,,,,,,,,,,,,,,,,,
2026-03-07T15:24:16,1055.505,10.883942806999812,ROW,DROP,arm_wait,-69.83033153641496,-0.43,-2.77,9.4,9.809067233942278,45.6875,5.25,-69.375,1.1875,-2.1875,16.3125,ARM_WAIT,9.769969293708145,-0.018809614020014465,False,0,False,False,-68.97354727806136,-68.80948727715952,30.38809983333333,130.94443583333333,1,6,3.12,,,,,0,0,1490,1490,,False,,
2026-03-07T15:24:16,1055.655,11.045688379000012,EVENT,DROP,[DROP] ARM_WAIT alt=-69.84 acc_med=9.807884583333962 dalt_med=-0.019 baseline=-68.97 max_alt=-68.81,,,,,,,,,,,,,,,,,,,,,,,,,,,,,,,,,,,,
2026-03-07T15:24:16,1055.655,11.045688379000012,ROW,DROP,arm_wait,-69.83768824911715,-0.44,-2.73,9.41,9.807884583333962,44.875,5.25,-66.375,1.1875,-2.1875,16.3125,ARM_WAIT,9.807884583333962,-0.018809614020014465,False,0,False,False,-68.97354727806136,-68.80948727715952,30.38809983333333,130.94443583333333,1,6,3.12,,,,,0,0,1490,1490,,False,,
2026-03-07T15:24:16,1055.831,11.219306184999823,EVENT,DROP,[DROP] ARM_WAIT alt=-69.62 acc_med=9.803800283563513 dalt_med=-0.007 baseline=-68.97 max_alt=-68.81,,,,,,,,,,,,,,,,,,,,,,,,,,,,,,,,,,,,
2026-03-07T15:24:16,1055.831,11.219306184999823,ROW,DROP,arm_wait,-69.61660083559538,-0.32,-2.8000000000000003,9.39,9.803800283563513,43.75,4.875,-66.375,1.25,-2.1875,16.3125,ARM_WAIT,9.803800283563513,-0.007356712702190293,False,0,False,False,-68.97354727806136,-68.80948727715952,30.38809983333333,130.94443583333333,1,6,3.12,,,,,0,0,1490,1490,,False,,
2026-03-07T15:24:16,1055.982,11.371897149999995,EVENT,DROP,[DROP] ARM_WAIT alt=-69.78 acc_med=9.769969293708145 dalt_med=-0.019 baseline=-68.97 max_alt=-68.81,,,,,,,,,,,,,,,,,,,,,,,,,,,,,,,,,,,,
2026-03-07T15:24:16,1055.983,11.371897149999995,ROW,DROP,arm_wait,-69.78065282583444,-0.47000000000000003,-2.7600000000000002,9.35,9.760174178773655,45.25,5.25,-67.1875,1.3125,-2.1875,16.3125,ARM_WAIT,9.769969293708145,-0.018809614020014465,False,0,False,False,-68.97354727806136,-68.80948727715952,30.38809983333333,130.94443583333333,1,6,3.12,,,,,0,0,1490,1490,,False,,
2026-03-07T15:24:17,1056.139,11.524281828999847,EVENT,DROP,[DROP] ARM_WAIT alt=-69.58 acc_med=9.765838417667988 dalt_med=-0.019 baseline=-68.97 max_alt=-68.81,,,,,,,,,,,,,,,,,,,,,,,,,,,,,,,,,,,,
2026-03-07T15:24:17,1056.139,11.524281828999847,ROW,DROP,arm_wait,-69.5786722959391,-0.46,-2.7600000000000002,9.35,9.759697741221293,45.25,3.375,-66.375,1.3125,-2.1875,16.3125,ARM_WAIT,9.765838417667988,-0.018809614020014465,False,0,False,False,-68.97354727806136,-68.80948727715952,30.38809983333333,130.94443583333333,1,6,3.12,,,,,0,0,1490,1490,,False,,
2026-03-07T15:24:17,1056.291,11.680498168999975,EVENT,DROP,[DROP] ARM_WAIT alt=-69.94 acc_med=9.769969293708145 dalt_med=-0.019 baseline=-68.97 max_alt=-68.81,,,,,,,,,,,,,,,,,,,,,,,,,,,,,,,,,,,,
2026-03-07T15:24:17,1056.291,11.680498168999975,ROW,DROP,arm_wait,-69.94440334908428,-0.48,-2.79,9.42,9.836203535917708,45.25,4.875,-67.6875,1.375,-2.125,16.3125,ARM_WAIT,9.769969293708145,-0.018809614020014465,False,0,False,False,-68.97354727806136,-68.80948727715952,30.38805933333333,130.94440666666665,1,6,3.12,,,,,0,0,1490,1490,,False,,
2026-03-07T15:24:17,1056.443,11.832318575999807,EVENT,DROP,[DROP] ARM_WAIT alt=-69.64 acc_med=9.803800283563513 dalt_med=-0.007 baseline=-68.97 max_alt=-68.81,,,,,,,,,,,,,,,,,,,,,,,,,,,,,,,,,,,,
2026-03-07T15:24:17,1056.443,11.832318575999807,ROW,DROP,arm_wait,-69.64496227747728,-0.49,-2.77,9.43,9.840624980152429,46.375,4.1875,-66.75,1.4375,-2.125,16.3125,ARM_WAIT,9.803800283563513,-0.007356712702190293,False,0,False,False,-68.97354727806136,-68.80948727715952,30.38805933333333,130.94440666666665,1,6,3.12,,,,,0,0,1490,1490,,False,,
2026-03-07T15:24:17,1056.643,11.984217571999807,EVENT,DROP,[DROP] ARM_WAIT alt=-69.58 acc_med=9.807884583333962 dalt_med=0.062 baseline=-68.97 max_alt=-68.81,,,,,,,,,,,,,,,,,,,,,,,,,,,,,,,,,,,,
2026-03-07T15:24:17,1056.644,11.984217571999807,ROW,DROP,arm_wait,-69.58321204105694,-0.47000000000000003,-2.75,9.41,9.814861180882795,44.875,3.375,-68.5,1.4375,-2.125,16.3125,ARM_WAIT,9.807884583333962,0.0617502364203375,False,0,False,False,-68.97354727806136,-68.80948727715952,30.38805933333333,130.94440666666665,1,6,3.12,,,,,0,0,1490,1490,,False,,
2026-03-07T15:24:17,1056.819,12.20812521699986,EVENT,DROP,[DROP] ARM_WAIT alt=-69.73 acc_med=9.809067233942278 dalt_med=0.062 baseline=-68.97 max_alt=-68.81,,,,,,,,,,,,,,,,,,,,,,,,,,,,,,,,,,,,
2026-03-07T15:24:17,1056.819,12.20812521699986,ROW,DROP,arm_wait,-69.72596915243844,-0.47000000000000003,-2.73,9.44,9.838058751603388,44.1875,4.375,-68.5,1.5625,-2.125,16.3125,ARM_WAIT,9.809067233942278,0.0617502364203375,False,0,False,False,-68.97354727806136,-68.80948727715952,30.38805933333333,130.94440666666665,1,6,3.12,,,,,0,0,1490,1490,,False,,
2026-03-07T15:24:17,1056.972,12.36072735699986,EVENT,DROP,[DROP] ARM_WAIT alt=-69.86 acc_med=9.809067233942278 dalt_med=-0.131 baseline=-68.97 max_alt=-68.81,,,,,,,,,,,,,,,,,,,,,,,,,,,,,,,,,,,,
2026-03-07T15:24:17,1056.972,12.36072735699986,ROW,DROP,arm_wait,-69.85649585720351,-0.47000000000000003,-2.7800000000000002,9.22,9.641457358719169,45.25,4.75,-70.1875,1.5625,-2.1875,16.3125,ARM_WAIT,9.809067233942278,-0.13052670476507444,False,0,False,False,-68.97354727806136,-68.80948727715952,30.38805933333333,130.94440666666665,1,6,3.12,,,,,0,0,1490,1490,,False,,
2026-03-07T15:24:18,1057.132,12.51341454899989,EVENT,DROP,[DROP] ARM_WAIT alt=-69.90 acc_med=9.809067233942278 dalt_med=-0.043 baseline=-68.97 max_alt=-68.81,,,,,,,,,,,,,,,,,,,,,,,,,,,,,,,,,,,,
2026-03-07T15:24:18,1057.132,12.51341454899989,ROW,DROP,arm_wait,-69.89927316662417,-0.44,-2.79,9.41,9.824754449857767,43.375,5.1875,-66.75,1.5625,-2.1875,16.3125,ARM_WAIT,9.809067233942278,-0.04277730942065716,False,0,False,False,-68.97354727806136,-68.80948727715952,30.38805933333333,130.94440666666665,1,6,3.12,,,,,0,0,1490,1490,,False,,
2026-03-07T15:24:18,1057.283,12.673223402999838,EVENT,DROP,[DROP] ARM_WAIT alt=-70.08 acc_med=9.807884583333962 dalt_med=-0.131 baseline=-68.97 max_alt=-68.81,,,,,,,,,,,,,,,,,,,,,,,,,,,,,,,,,,,,
2026-03-07T15:24:18,1057.283,12.673223402999838,ROW,DROP,arm_wait,-70.07757818146644,-0.49,-2.73,9.39,9.791072464240065,44.5,4.75,-68.5,1.5625,-2.1875,16.3125,ARM_WAIT,9.807884583333962,-0.13052670476507444,False,0,False,False,-68.97354727806136,-68.80948727715952,30.38805933333333,130.94440666666665,1,6,3.12,,,,,0,0,1490,1490,,False,,
2026-03-07T15:24:18,1057.436,12.824289344999897,EVENT,DROP,[DROP] ARM_WAIT alt=-70.08 acc_med=9.814861180882795 dalt_med=-0.043 baseline=-68.97 max_alt=-68.81,,,,,,,,,,,,,,,,,,,,,,,,,,,,,,,,,,,,
2026-03-07T15:24:18,1057.438,12.824289344999897,ROW,DROP,arm_wait,-70.08228672374331,-0.56,-2.77,9.43,9.844358790698356,45.6875,4.375,-67.6875,1.5625,-2.25,16.3125,ARM_WAIT,9.814861180882795,-0.04277730942065716,False,0,False,False,-68.97354727806136,-68.80948727715952,30.38805933333333,130.94440666666665,1,6,3.12,,,,,0,0,1490,1490,,False,,
2026-03-07T15:24:18,1057.597,12.979398737999873,EVENT,DROP,[DROP] ARM_WAIT alt=-69.83 acc_med=9.814861180882795 dalt_med=-0.043 baseline=-68.97 max_alt=-68.81,,,,,,,,,,,,,,,,,,,,,,,,,,,,,,,,,,,,
2026-03-07T15:24:18,1057.597,12.979398737999873,ROW,DROP,arm_wait,-69.82562261735863,-0.35000000000000003,-2.7600000000000002,9.38,9.783889819494085,45.1875,4.75,-68.0625,1.6875,-2.1875,16.3125,ARM_WAIT,9.814861180882795,-0.04277730942065716,False,0,False,False,-68.97354727806136,-68.80948727715952,30.38805933333333,130.94440666666665,1,6,3.12,,,,,0,0,1490,1490,,False,,
2026-03-07T15:24:18,1057.775,13.161522920999914,EVENT,DROP,[DROP] ARM_WAIT alt=-70.08 acc_med=9.814861180882795 dalt_med=-0.131 baseline=-68.97 max_alt=-68.81,,,,,,,,,,,,,,,,,,,,,,,,,,,,,,,,,,,,
2026-03-07T15:24:18,1057.775,13.161522920999914,ROW,DROP,arm_wait,-70.07993293276292,-0.44,-2.75,9.39,9.794294257372504,44.75,4.375,-68.875,1.6875,-2.1875,16.3125,ARM_WAIT,9.814861180882795,-0.13052670476507444,False,0,False,False,-68.97354727806136,-68.80948727715952,30.38805933333333,130.94440666666665,1,6,3.12,,,,,0,0,1490,1490,,False,,
2026-03-07T15:24:18,1057.930,13.317095155999823,EVENT,DROP,[DROP] ARM_WAIT alt=-70.03 acc_med=9.820967365794472 dalt_med=-0.043 baseline=-68.97 max_alt=-68.81,,,,,,,,,,,,,,,,,,,,,,,,,,,,,,,,,,,,
2026-03-07T15:24:18,1057.932,13.317095155999823,ROW,DROP,arm_wait,-70.02525078146607,-0.48,-2.77,9.41,9.820967365794472,45.875,5.1875,-67.1875,1.75,-2.1875,16.375,ARM_WAIT,9.820967365794472,-0.04277730942065716,False,0,False,False,-68.97354727806136,-68.80948727715952,30.38805933333333,130.94440666666665,1,6,3.12,,,,,0,0,1490,1490,,False,,
2026-03-07T15:24:19,1058.088,13.474131070999874,EVENT,DROP,[DROP] ARM_WAIT alt=-70.03 acc_med=9.814861180882795 dalt_med=-0.010 baseline=-68.97 max_alt=-68.81,,,,,,,,,,,,,,,,,,,,,,,,,,,,,,,,,,,,
2026-03-07T15:24:19,1058.089,13.474131070999874,ROW,DROP,arm_wait,-70.03480054993568,-0.46,-2.73,9.370000000000001,9.77043499543393,45.6875,5.25,-68.1875,1.875,-2.1875,16.375,ARM_WAIT,9.814861180882795,-0.009549768469611308,False,0,False,False,-68.97354727806136,-68.80948727715952,30.38805933333333,130.94440666666665,1,6,3.12,,,,,0,0,1490,1490,,False,,
2026-03-07T15:24:19,1058.249,13.630124457999955,EVENT,DROP,[DROP] ARM_WAIT alt=-69.83 acc_med=9.794294257372504 dalt_med=-0.005 baseline=-68.97 max_alt=-68.81,,,,,,,,,,,,,,,,,,,,,,,,,,,,,,,,,,,,
2026-03-07T15:24:19,1058.249,13.630124457999955,ROW,DROP,arm_wait,-69.83016012930186,-0.51,-2.77,9.38,9.79374290044414,45.6875,5.25,-67.6875,1.875,-2.1875,16.375,ARM_WAIT,9.794294257372504,-0.004708542276873118,False,0,False,False,-68.97354727806136,-68.80948727715952,30.38803083333333,130.944386,1,6,3.12,,,,,0,0,1490,1490,,False,,
2026-03-07T15:24:19,1058.408,13.790431860999888,EVENT,DROP,[DROP] ARM_WAIT alt=-70.14 acc_med=9.79374290044414 dalt_med=-0.005 baseline=-68.97 max_alt=-68.81,,,,,,,,,,,,,,,,,,,,,,,,,,,,,,,,,,,,
2026-03-07T15:24:19,1058.408,13.790431860999888,ROW,DROP,arm_wait,-70.14151110601837,-0.53,-2.75,9.38,9.789167482477762,45.25,4.5,-68.0625,1.9375,-2.1875,16.375,ARM_WAIT,9.79374290044414,-0.004708542276873118,False,0,False,False,-68.97354727806136,-68.80948727715952,30.38803083333333,130.944386,1,6,3.12,,,,,0,0,1490,1490,,False,,
2026-03-07T15:24:19,1058.569,13.949720093999986,EVENT,DROP,[DROP] ARM_WAIT alt=-70.03 acc_med=9.79374290044414 dalt_med=0.055 baseline=-68.97 max_alt=-68.81,,,,,,,,,,,,,,,,,,,,,,,,,,,,,,,,,,,,
2026-03-07T15:24:19,1058.569,13.949720093999986,ROW,DROP,arm_wait,-70.02743592999359,-0.48,-2.77,9.39,9.80180595604708,45.6875,4.1875,-66.875,2.0,-2.1875,16.375,ARM_WAIT,9.79374290044414,0.05468215129684495,False,0,False,False,-68.97354727806136,-68.80948727715952,30.38803083333333,130.944386,1,6,3.12,,,,,0,0,1490,1490,,False,,
2026-03-07T15:24:19,1058.756,14.133695994999925,EVENT,DROP,[DROP] ARM_WAIT alt=-69.70 acc_med=9.79374290044414 dalt_med=0.055 baseline=-68.97 max_alt=-68.81,,,,,,,,,,,,,,,,,,,,,,,,,,,,,,,,,,,,
2026-03-07T15:24:19,1058.756,14.133695994999925,ROW,DROP,arm_wait,-69.70182280781202,-0.46,-2.7600000000000002,9.33,9.740538999459938,44.5,4.5,-67.1875,2.0,-2.1875,16.375,ARM_WAIT,9.79374290044414,0.05468215129684495,False,0,False,False,-68.97354727806136,-68.80948727715952,30.38803083333333,130.944386,1,6,3.12,,,,,0,0,1490,1490,,False,,
2026-03-07T15:24:19,1058.909,14.297423963000028,EVENT,DROP,[DROP] ARM_WAIT alt=-70.21 acc_med=9.79374290044414 dalt_med=0.055 baseline=-68.97 max_alt=-68.81,,,,,,,,,,,,,,,,,,,,,,,,,,,,,,,,,,,,
2026-03-07T15:24:19,1058.910,14.297423963000028,ROW,DROP,arm_wait,-70.21280748069285,-0.45,-2.72,9.43,9.824754449857767,46.0,4.875,-68.5,2.0,-2.1875,16.375,ARM_WAIT,9.79374290044414,0.05468215129684495,False,0,False,False,-68.97354727806136,-68.80948727715952,30.38803083333333,130.944386,1,6,3.12,,,,,0,0,1490,1490,,False,,
2026-03-07T15:24:20,1059.064,14.451381774999845,EVENT,DROP,[DROP] ARM_WAIT alt=-70.36 acc_med=9.794294257372504 dalt_med=-0.010 baseline=-68.97 max_alt=-68.81,,,,,,,,,,,,,,,,,,,,,,,,,,,,,,,,,,,,
2026-03-07T15:24:20,1059.065,14.451381774999845,ROW,DROP,arm_wait,-70.36494657714978,-0.48,-2.77,9.39,9.80180595604708,46.0,4.875,-68.5,2.0,-2.1875,16.375,ARM_WAIT,9.794294257372504,-0.009549768469611308,False,0,False,False,-68.97354727806136,-68.80948727715952,30.38803083333333,130.944386,1,6,3.12,,,,,0,0,1490,1490,,False,,
2026-03-07T15:24:20,1059.221,14.60628305299997,EVENT,DROP,[DROP] ARM_WAIT alt=-70.24 acc_med=9.794294257372504 dalt_med=0.114 baseline=-68.97 max_alt=-68.81,,,,,,,,,,,,,,,,,,,,,,,,,,,,,,,,,,,,
2026-03-07T15:24:20,1059.221,14.60628305299997,ROW,DROP,arm_wait,-70.23896968717371,-0.44,-2.7600000000000002,9.39,9.797106715760526,44.1875,4.875,-66.875,2.0,-2.1875,16.375,ARM_WAIT,9.794294257372504,0.11407517602478379,False,0,False,False,-68.97354727806136,-68.80948727715952,30.38803083333333,130.944386,1,6,3.12,,,,,0,0,1490,1490,,False,,
2026-03-07T15:24:20,1059.374,14.762480058999927,EVENT,DROP,[DROP] ARM_WAIT alt=-70.11 acc_med=9.79647895929961 dalt_med=0.114 baseline=-68.97 max_alt=-68.81,,,,,,,,,,,,,,,,,,,,,,,,,,,,,,,,,,,,
2026-03-07T15:24:20,1059.374,14.762480058999927,ROW,DROP,arm_wait,-70.10827693138485,-0.45,-2.79,9.38,9.79647895929961,44.875,4.1875,-69.375,2.0,-2.1875,16.375,ARM_WAIT,9.79647895929961,0.11407517602478379,False,0,False,False,-68.97354727806136,-68.80948727715952,30.38803083333333,130.944386,1,7,2.53,,,,,0,0,1490,1490,,False,,
2026-03-07T15:24:20,1059.526,14.915401543999906,EVENT,DROP,[DROP] ARM_WAIT alt=-70.02 acc_med=9.797106715760526 dalt_med=0.114 baseline=-68.97 max_alt=-68.81,,,,,,,,,,,,,,,,,,,,,,,,,,,,,,,,,,,,
2026-03-07T15:24:20,1059.526,14.915401543999906,ROW,DROP,arm_wait,-70.01770764983779,-0.44,-2.74,9.46,9.858640879959063,44.5,5.25,-68.0625,2.0625,-2.125,16.375,ARM_WAIT,9.797106715760526,0.11407517602478379,False,0,False,False,-68.97354727806136,-68.80948727715952,30.38803083333333,130.944386,1,7,2.53,,,,,0,0,1490,1490,,False,,
2026-03-07T15:24:20,1059.686,15.067193864999808,EVENT,DROP,[DROP] ARM_WAIT alt=-70.31 acc_med=9.797106715760526 dalt_med=0.091 baseline=-68.97 max_alt=-68.81,,,,,,,,,,,,,,,,,,,,,,,,,,,,,,,,,,,,
2026-03-07T15:24:20,1059.686,15.067193864999808,ROW,DROP,arm_wait,-70.31480141066126,-0.45,-2.7800000000000002,9.42,9.83195301046542,46.0,5.6875,-69.0,2.125,-2.125,16.375,ARM_WAIT,9.797106715760526,0.09056928154706156,False,0,False,False,-68.97354727806136,-68.80948727715952,30.38803083333333,130.944386,1,7,2.53,,,,,0,0,1490,1490,,False,,
2026-03-07T15:24:20,1059.859,15.250534415999937,EVENT,DROP,[DROP] ARM_WAIT alt=-70.12 acc_med=9.80180595604708 dalt_med=0.091 baseline=-68.97 max_alt=-68.81,,,,,,,,,,,,,,,,,,,,,,,,,,,,,,,,,,,,
2026-03-07T15:24:20,1059.860,15.250534415999937,ROW,DROP,arm_wait,-70.12489462545845,-0.47000000000000003,-2.7800000000000002,9.41,9.823309014787228,45.25,4.875,-66.0,2.125,-2.1875,16.375,ARM_WAIT,9.80180595604708,0.09056928154706156,False,0,False,False,-68.97354727806136,-68.80948727715952,30.38803083333333,130.944386,1,7,2.53,,,,,0,0,1490,1490,,False,,
2026-03-07T15:24:20,1060.013,15.400983363000023,EVENT,DROP,[DROP] ARM_WAIT alt=-70.35 acc_med=9.80180595604708 dalt_med=0.091 baseline=-68.97 max_alt=-68.81,,,,,,,,,,,,,,,,,,,,,,,,,,,,,,,,,,,,
2026-03-07T15:24:20,1060.013,15.400983363000023,ROW,DROP,arm_wait,-70.35068731200299,-0.48,-2.72,9.39,9.787793418334902,45.6875,5.25,-66.875,2.1875,-2.125,16.375,ARM_WAIT,9.80180595604708,0.09056928154706156,False,0,False,False,-68.97354727806136,-68.80948727715952,30.38803083333333,130.944386,1,7,2.53,,,,,0,0,1490,1490,,False,,
2026-03-07T15:24:21,1060.165,15.55416870199997,EVENT,DROP,[DROP] ARM_WAIT alt=-70.29 acc_med=9.80180595604708 dalt_med=0.091 baseline=-68.97 max_alt=-68.81,,,,,,,,,,,,,,,,,,,,,,,,,,,,,,,,,,,,
2026-03-07T15:24:21,1060.165,15.55416870199997,ROW,DROP,arm_wait,-70.28628228204651,-0.36,-2.73,9.36,9.75664389019093,45.25,5.75,-69.0,2.25,-2.1875,16.375,ARM_WAIT,9.80180595604708,0.09056928154706156,False,0,False,False,-68.97354727806136,-68.80948727715952,30.38803083333333,130.944386,1,7,2.53,,,,,0,0,1490,1490,,False,,
2026-03-07T15:24:21,1060.324,15.705941314000029,EVENT,DROP,[DROP] ARM_WAIT alt=-70.30 acc_med=9.80180595604708 dalt_med=0.064 baseline=-68.97 max_alt=-68.81,,,,,,,,,,,,,,,,,,,,,,,,,,,,,,,,,,,,
2026-03-07T15:24:21,1060.325,15.705941314000029,ROW,DROP,arm_wait,-70.29818240239736,-0.47000000000000003,-2.7600000000000002,9.41,9.817667747484634,44.875,6.5625,-67.25,2.25,-2.1875,16.375,ARM_WAIT,9.80180595604708,0.06440502995647535,False,0,False,False,-68.97354727806136,-68.80948727715952,30.38803083333333,130.944386,1,7,2.53,,,,,0,0,1490,1490,,False,,
2026-03-07T15:24:21,1060.477,15.86570354499986,EVENT,DROP,[DROP] ARM_WAIT alt=-70.10 acc_med=9.817667747484634 dalt_med=0.064 baseline=-68.97 max_alt=-68.81,,,,,,,,,,,,,,,,,,,,,,,,,,,,,,,,,,,,
2026-03-07T15:24:21,1060.478,15.86570354499986,ROW,DROP,arm_wait,-70.09854502117108,-0.47000000000000003,-2.74,9.42,9.821654646748684,45.6875,5.75,-69.0,2.25,-2.1875,16.375,ARM_WAIT,9.817667747484634,0.06440502995647535,False,0,False,False,-68.97354727806136,-68.80948727715952,30.38803083333333,130.944386,1,7,2.53,,,,,0,0,1490,1490,,False,,
2026-03-07T15:24:21,1060.636,16.018803540999897,EVENT,DROP,[DROP] ARM_WAIT alt=-70.31 acc_med=9.813730177664354 dalt_med=-0.012 baseline=-68.97 max_alt=-68.81,,,,,,,,,,,,,,,,,,,,,,,,,,,,,,,,,,,,
2026-03-07T15:24:21,1060.636,16.018803540999897,ROW,DROP,arm_wait,-70.31244207448326,-0.47000000000000003,-2.7800000000000002,9.4,9.813730177664354,44.875,7.25,-67.1875,2.25,-2.1875,16.375,ARM_WAIT,9.813730177664354,-0.011900120350844645,False,0,False,False,-68.97354727806136,-68.80948727715952,30.38803083333333,130.944386,1,7,2.53,,,,,0,0,1490,1490,,False,,
2026-03-07T15:24:21,1060.815,16.20020203199988,EVENT,DROP,[DROP] ARM_WAIT alt=-70.36 acc_med=9.813730177664354 dalt_med=-0.012 baseline=-68.97 max_alt=-68.81,,,,,,,,,,,,,,,,,,,,,,,,,,,,,,,,,,,,
2026-03-07T15:24:21,1060.815,16.20020203199988,ROW,DROP,arm_wait,-70.35757996274141,-0.49,-2.75,9.35,9.758334898946643,44.1875,5.75,-66.875,2.3125,-2.1875,16.375,ARM_WAIT,9.813730177664354,-0.011900120350844645,False,0,False,False,-68.97354727806136,-68.80948727715952,30.38803083333333,130.944386,1,7,2.53,,,,,0,0,1490,1490,,False,,
2026-03-07T15:24:21,1060.970,16.355939714999977,EVENT,DROP,[DROP] ARM_WAIT alt=-70.44 acc_med=9.813730177664354 dalt_med=-0.045 baseline=-68.97 max_alt=-68.81,,,,,,,,,,,,,,,,,,,,,,,,,,,,,,,,,,,,
2026-03-07T15:24:21,1060.970,16.355939714999977,ROW,DROP,arm_wait,-70.43841903606888,-0.49,-2.74,9.38,9.784278205365995,45.6875,6.1875,-69.375,2.375,-2.1875,16.375,ARM_WAIT,9.813730177664354,-0.04513788825815368,False,0,False,False,-68.97354727806136,-68.80948727715952,30.38803083333333,130.944386,1,7,2.53,,,,,0,0,1490,1490,,False,,
2026-03-07T15:24:22,1061.128,16.51098894500001,EVENT,DROP,[DROP] ARM_WAIT alt=-70.34 acc_med=9.813730177664354 dalt_med=-0.012 baseline=-68.97 max_alt=-68.81,,,,,,,,,,,,,,,,,,,,,,,,,,,,,,,,,,,,
2026-03-07T15:24:22,1061.129,16.51098894500001,ROW,DROP,arm_wait,-70.33860130001844,-0.48,-2.7600000000000002,9.39,9.798984641277892,44.1875,5.375,-66.875,2.375,-2.1875,16.375,ARM_WAIT,9.813730177664354,-0.011900120350844645,False,0,False,False,-68.97354727806136,-68.80948727715952,30.38803083333333,130.944386,1,7,2.53,,,,,0,0,1490,1490,,False,,
2026-03-07T15:24:22,1061.280,16.669715318999806,EVENT,DROP,[DROP] ARM_WAIT alt=-70.55 acc_med=9.798984641277892 dalt_med=-0.045 baseline=-68.97 max_alt=-68.81,,,,,,,,,,,,,,,,,,,,,,,,,,,,,,,,,,,,
2026-03-07T15:24:22,1061.281,16.669715318999806,ROW,DROP,arm_wait,-70.54512437811985,3.0,-2.21,8.45,9.235074444745965,46.75,6.75,-69.375,4.4375,-1.0,16.3125,ARM_WAIT,9.798984641277892,-0.04513788825815368,False,0,False,False,-68.97354727806136,-68.80948727715952,30.38803083333333,130.944386,1,7,2.53,,,,,0,0,1490,1490,,False,,
2026-03-07T15:24:22,1061.434,16.821565820999922,EVENT,DROP,[DROP] ARM_WAIT alt=-70.38 acc_med=9.787793418334902 dalt_med=-0.045 baseline=-68.97 max_alt=-68.81,,,,,,,,,,,,,,,,,,,,,,,,,,,,,,,,,,,,
2026-03-07T15:24:22,1061.435,16.821565820999922,ROW,DROP,arm_wait,-70.38354072533264,-0.6900000000000001,-2.86,9.21,9.668495229351878,45.6875,6.5,-66.0,4.875,-1.6875,16.3125,ARM_WAIT,9.787793418334902,-0.04513788825815368,False,0,False,False,-68.97354727806136,-68.80948727715952,30.38803083333333,130.944386,1,7,2.53,,,,,0,0,1490,1490,,False,,
2026-03-07T15:24:22,1061.594,16.97571251599993,EVENT,DROP,[DROP] ARM_WAIT alt=-69.97 acc_med=9.787793418334902 dalt_med=-0.045 baseline=-68.97 max_alt=-68.81,,,,,,,,,,,,,,,,,,,,,,,,,,,,,,,,,,,,
2026-03-07T15:24:22,1061.595,16.97571251599993,ROW,DROP,arm_wait,-69.97472159115235,-0.78,-2.84,9.43,9.87921555590321,45.1875,5.75,-66.75,5.0,-2.1875,16.3125,ARM_WAIT,9.787793418334902,-0.04513788825815368,False,0,False,False,-68.97354727806136,-68.80948727715952,30.38803083333333,130.944386,1,7,2.53,,,,,0,0,1490,1490,,False,,
2026-03-07T15:24:22,1061.775,17.15989575399999,EVENT,DROP,[DROP] ARM_WAIT alt=-70.49 acc_med=9.798984641277892 dalt_med=-0.045 baseline=-68.97 max_alt=-68.81,,,,,,,,,,,,,,,,,,,,,,,,,,,,,,,,,,,,
2026-03-07T15:24:22,1061.776,17.15989575399999,ROW,DROP,arm_wait,-70.48808545166834,-0.46,-2.8000000000000003,9.38,9.799795916242338,44.5,5.875,-68.6875,4.875,-1.875,16.3125,ARM_WAIT,9.798984641277892,-0.04513788825815368,False,0,False,False,-68.97354727806136,-68.80948727715952,30.38803083333333,130.944386,1,7,2.53,,,,,0,0,1490,1490,,False,,
2026-03-07T15:24:22,1061.928,17.317001578999907,EVENT,DROP,[DROP] ARM_WAIT alt=-70.12 acc_med=9.798984641277892 dalt_med=0.100 baseline=-68.97 max_alt=-68.81,,,,,,,,,,,,,,,,,,,,,,,,,,,,,,,,,,,,
2026-03-07T15:24:22,1061.929,17.317001578999907,ROW,DROP,arm_wait,-70.12234027208969,-0.39,-2.7800000000000002,9.34,9.752748330598918,44.0625,7.0625,-66.5625,4.9375,-2.0,16.3125,ARM_WAIT,9.798984641277892,0.09981773605043998,False,0,False,False,-68.97354727806136,-68.80948727715952,30.38803083333333,130.944386,1,7,2.53,,,,,0,0,1490,1490,,False,,
2026-03-07T15:24:23,1062.081,17.469588191999947,EVENT,DROP,[DROP] ARM_WAIT alt=-70.58 acc_med=9.798984641277892 dalt_med=0.100 baseline=-68.97 max_alt=-68.81,,,,,,,,,,,,,,,,,,,,,,,,,,,,,,,,,,,,
2026-03-07T15:24:23,1062.081,17.469588191999947,ROW,DROP,arm_wait,-70.58081803325041,-0.41000000000000003,-2.75,9.41,9.812171013593272,45.5625,5.1875,-68.1875,4.9375,-2.0625,16.3125,ARM_WAIT,9.798984641277892,0.09981773605043998,False,0,False,False,-68.97354727806136,-68.80948727715952,30.38803083333333,130.944386,1,7,2.53,,,,,0,0,1490,1490,,False,,
2026-03-07T15:24:23,1062.239,17.622184985999866,EVENT,DROP,[DROP] ARM_WAIT alt=-70.41 acc_med=9.798984641277892 dalt_med=0.162 baseline=-68.97 max_alt=-68.81,,,,,,,,,,,,,,,,,,,,,,,,,,,,,,,,,,,,
2026-03-07T15:24:23,1062.240,17.622184985999866,ROW,DROP,arm_wait,-70.40969681026482,-0.44,-2.77,9.39,9.799928571168262,44.5,6.6875,-67.375,4.9375,-2.0625,16.3125,ARM_WAIT,9.798984641277892,0.16158365278721476,False,0,False,False,-68.97354727806136,-68.80948727715952,30.38803083333333,130.944386,1,7,2.53,,,,,0,0,1490,1490,,False,,
2026-03-07T15:24:23,1062.394,17.78088274499987,EVENT,DROP,[DROP] ARM_WAIT alt=-70.32 acc_med=9.784278205365995 dalt_med=0.162 baseline=-68.97 max_alt=-68.81,,,,,,,,,,,,,,,,,,,,,,,,,,,,,,,,,,,,
2026-03-07T15:24:23,1062.394,17.78088274499987,ROW,DROP,arm_wait,-70.32413518456423,-0.46,-2.77,9.36,9.772108267922537,45.5625,6.6875,-67.875,4.9375,-2.0625,16.3125,ARM_WAIT,9.784278205365995,0.16158365278721476,False,0,False,False,-68.97354727806136,-68.80948727715952,30.38803083333333,130.944386,1,7,2.53,,,,,0,0,1490,1490,,False,,
2026-03-07T15:24:23,1062.547,17.93521633599994,EVENT,DROP,[DROP] ARM_WAIT alt=-70.28 acc_med=9.784278205365995 dalt_med=0.086 baseline=-68.97 max_alt=-68.81,,,,,,,,,,,,,,,,,,,,,,,,,,,,,,,,,,,,
2026-03-07T15:24:23,1062.547,17.93521633599994,ROW,DROP,arm_wait,-70.28135411814722,-0.44,-2.74,9.38,9.781901655608689,44.5,6.6875,-67.0,5.0,-2.125,16.3125,ARM_WAIT,9.784278205365995,0.085561625700592,False,0,False,False,-68.97354727806136,-68.80948727715952,30.38803083333333,130.944386,1,7,2.53,,,,,0,0,1490,1490,,False,,
2026-03-07T15:24:23,1062.708,18.088272539999934,EVENT,DROP,[DROP] ARM_WAIT alt=-70.32 acc_med=9.798984641277892 dalt_med=0.043 baseline=-68.97 max_alt=-68.81,,,,,,,,,,,,,,,,,,,,,,,,,,,,,,,,,,,,
2026-03-07T15:24:23,1062.709,18.088272539999934,ROW,DROP,arm_wait,-70.32176937340628,-0.45,-2.73,9.41,9.808338289435168,44.5,5.875,-68.6875,5.0,-2.125,16.3125,ARM_WAIT,9.798984641277892,0.04278106641700674,False,0,False,False,-68.97354727806136,-68.80948727715952,30.38803083333333,130.944386,1,7,2.53,,,,,0,0,1490,1490,,False,,
2026-03-07T15:24:23,1062.886,18.273110365999855,EVENT,DROP,[DROP] ARM_WAIT alt=-70.09 acc_med=9.799795916242338 dalt_med=0.086 baseline=-68.97 max_alt=-68.81,,,,,,,,,,,,,,,,,,,,,,,,,,,,,,,,,,,,
2026-03-07T15:24:23,1062.886,18.273110365999855,ROW,DROP,arm_wait,-70.08643963113985,-0.44,-2.7600000000000002,9.4,9.806691592988942,46.375,6.25,-67.875,4.9375,-2.125,16.3125,ARM_WAIT,9.799795916242338,0.085561625700592,False,0,False,False,-68.97354727806136,-68.80948727715952,30.38803083333333,130.944386,1,7,2.53,,,,,0,0,1490,1490,,False,,
2026-03-07T15:24:23,1063.040,18.427060589999883,EVENT,DROP,[DROP] ARM_WAIT alt=-70.28 acc_med=9.799795916242338 dalt_med=0.043 baseline=-68.97 max_alt=-68.81,,,,,,,,,,,,,,,,,,,,,,,,,,,,,,,,,,,,
