pc_time,mono_time,elapsed_sec,kind,phase,message,alt_m,acc_x,acc_y,acc_z,acc_norm,mag_x,mag_y,mag_z,euler_heading,euler_roll,euler_pitch,drop_subphase,drop_acc_med,drop_dalt_med,drop_cond,drop_consec,drop_confirmed,drop_armed,drop_baseline_alt,drop_max_alt,gps_lat,gps_lon,gps_fixq,gps_nsat,gps_hdop,gps_dist_m,gps_goal_bearing_deg,gps_heading_deg,gps_err_deg,servo_fwd_cmd,servo_turn_cmd,servo_us18,servo_us12,recovery_mode,recovery_busy,camera_red_ratio,camera_status
2026-03-07T14:36:32,786.709,,EVENT,,=== CanSat Integrated Program Start ===,,,,,,,,,,,,,,,,,,,,,,,,,,,,,,,,,,,,
2026-03-07T14:36:33,788.025,0.0,EVENT,DROP,Phase: DROP,,,,,,,,,,,,,,,,,,,,,,,,,,,,,,,,,,,,
2026-03-07T14:36:33,788.026,0.0,EVENT,DROP,[TIMER] force_gps=180s force_done=300s,,,,,,,,,,,,,,,,,,,,,,,,,,,,,,,,,,,,
2026-03-07T14:36:33,788.088,0.0012304850000646184,ROW,DROP,warmup,-70.1764304023002,-0.61,-3.02,9.52,10.006143113108067,78.5,11.25,-146.375,0.0,0.0,0.0,WARMUP,,,,0,False,False,-70.1764304023002,-70.1764304023002,,,0,0,,,,,,0,0,1490,1490,,False,,
2026-03-07T14:36:33,788.239,0.16368336100003944,ROW,DROP,warmup,-70.0073613248479,-0.59,-3.02,9.540000000000001,10.023976256955121,78.875,12.75,-147.25,0.0,-3.4375,17.6875,WARMUP,,,,0,False,False,-70.1764304023002,-70.0073613248479,,,0,0,,,,,,0,0,1490,1490,,False,,
2026-03-07T14:36:33,788.390,0.31432032700001855,ROW,DROP,warmup,-70.2932160953628,-0.59,-3.04,9.540000000000001,10.03001994015964,79.25,13.1875,-145.25,0.0,-3.4375,17.6875,WARMUP,,,,0,False,False,-70.1764304023002,-70.0073613248479,,,0,0,,,,,,0,0,1490,1490,,False,,
2026-03-07T14:36:33,788.546,0.4656953969999904,ROW,DROP,warmup,-70.02860165703173,-0.56,-3.0300000000000002,9.47,9.958684652101402,79.6875,13.5625,-146.875,0.0,-3.4375,17.6875,WARMUP,10.023976256955121,,,0,False,False,-70.1764304023002,-70.0073613248479,,,0,0,,,,,,0,0,1490,1490,,False,,
2026-03-07T14:36:34,788.697,0.6213588330000448,ROW,DROP,warmup,-69.89660326365964,-0.5700000000000001,-3.04,9.5,9.99082078710253,79.6875,12.75,-144.875,0.0,-3.4375,17.6875,WARMUP,10.007398522028826,,,0,False,False,-70.1764304023002,-69.89660326365964,,,0,0,,,,,,0,0,1490,1490,,False,,
2026-03-07T14:36:34,788.847,0.7722973539999884,ROW,DROP,warmup,-69.97989444068648,-0.61,-3.0300000000000002,9.5,9.99014514409075,79.6875,13.1875,-147.75,0.0,-3.4375,17.6875,WARMUP,9.99082078710253,,,0,False,False,-70.1764304023002,-69.89660326365964,,,0,0,,,,,,0,0,1490,1490,,False,,
2026-03-07T14:36:34,789.007,0.9233396749999656,ROW,DROP,warmup,-69.94678114980731,-0.59,-3.04,9.5,9.99198178541174,78.875,12.75,-143.25,0.0,-3.4375,17.6875,WARMUP,9.991401286257135,,,0,False,False,-70.1764304023002,-69.89660326365964,,,0,0,,,,,,0,0,1490,1490,,False,,
2026-03-07T14:36:34,789.158,1.0822581749999927,ROW,DROP,warmup,-70.21491116883244,-0.5700000000000001,-3.0500000000000003,9.51,10.003374430660886,79.25,13.5625,-145.0,359.9375,-3.4375,17.6875,WARMUP,9.99198178541174,,,0,False,False,-70.1764304023002,-69.89660326365964,,,0,0,,,,,,0,0,1490,1490,,False,,
2026-03-07T14:36:34,789.308,1.2336254340000323,ROW,DROP,warmup,-70.01787354605698,-0.63,-2.97,9.33,9.811559509068882,80.0625,12.75,-143.6875,359.9375,-3.4375,17.6875,WARMUP,9.991401286257135,,,0,False,False,-70.1764304023002,-69.89660326365964,,,0,0,,,,,,0,0,1490,1490,,False,,
2026-03-07T14:36:34,789.466,1.383745332999979,ROW,DROP,warmup,-69.92503996273115,-0.63,-2.95,9.35,9.824555969610026,79.6875,12.375,-145.75,359.9375,-3.4375,17.6875,WARMUP,9.99082078710253,,,0,False,False,-70.1764304023002,-69.89660326365964,,,0,0,,,,,,0,0,1490,1490,,False,,
2026-03-07T14:36:34,789.616,1.5420195809999768,ROW,DROP,warmup,-69.93925828426289,-0.6,-2.98,9.34,9.822219708395856,78.5625,13.5625,-145.75,359.9375,-3.4375,17.6875,WARMUP,9.990482965596641,,,0,False,False,-70.1764304023002,-69.89660326365964,,,0,0,,,,,,0,0,1490,1490,,False,,
2026-03-07T14:36:35,789.768,1.691972819000057,EVENT,DROP,[DROP] ARM_WAIT alt=-69.73 acc_med=9.99014514409075 dalt_med=0.033 baseline=-70.18 max_alt=-69.73,,,,,,,,,,,,,,,,,,,,,,,,,,,,,,,,,,,,
2026-03-07T14:36:35,789.769,1.691972819000057,ROW,DROP,arm_wait,-69.72598150075999,-0.58,-2.96,9.370000000000001,9.843520711615332,79.25,12.0625,-144.1875,359.9375,-3.4375,17.6875,ARM_WAIT,9.99014514409075,0.033113290879171586,False,0,False,False,-70.1764304023002,-69.72598150075999,,,0,0,,,,,,0,0,1490,1490,,False,,
2026-03-07T14:36:35,789.929,1.8444120279999652,EVENT,DROP,[DROP] ARM_WAIT alt=-69.60 acc_med=9.958684652101402 dalt_med=0.093 baseline=-70.18 max_alt=-69.60,,,,,,,,,,,,,,,,,,,,,,,,,,,,,,,,,,,,
2026-03-07T14:36:35,789.929,1.8444120279999652,ROW,DROP,arm_wait,-69.5959915681811,-0.56,-2.98,9.34,9.819857432773654,79.6875,13.1875,-146.5625,359.9375,-3.4375,17.6875,ARM_WAIT,9.958684652101402,0.09283358332582736,False,0,False,False,-70.1764304023002,-69.5959915681811,,,1,5,1.31,,,,,0,0,1490,1490,,False,,
2026-03-07T14:36:35,790.083,2.004771061000042,EVENT,DROP,[DROP] ARM_WAIT alt=-70.07 acc_med=9.843520711615332 dalt_med=0.093 baseline=-70.18 max_alt=-69.60,,,,,,,,,,,,,,,,,,,,,,,,,,,,,,,,,,,,
2026-03-07T14:36:35,790.084,2.004771061000042,ROW,DROP,arm_wait,-70.07474712695937,-0.5700000000000001,-2.98,9.35,9.829944048670876,80.0625,12.75,-144.5625,359.9375,-3.4375,17.6875,ARM_WAIT,9.843520711615332,0.09283358332582736,False,0,False,False,-70.1764304023002,-69.5959915681811,,,1,5,1.31,,,,,0,0,1490,1490,,False,,
2026-03-07T14:36:35,790.237,2.160069667000016,EVENT,DROP,[DROP] ARM_WAIT alt=-69.80 acc_med=9.843520711615332 dalt_med=0.130 baseline=-70.18 max_alt=-69.60,,,,,,,,,,,,,,,,,,,,,,,,,,,,,,,,,,,,
2026-03-07T14:36:35,790.238,2.160069667000016,ROW,DROP,arm_wait,-69.8045949568614,-0.61,-2.97,9.370000000000001,9.848345038634665,80.0625,13.5625,-144.5625,359.9375,-3.4375,17.6875,ARM_WAIT,9.843520711615332,0.12998993257888003,False,0,False,False,-70.1764304023002,-69.5959915681811,,,1,5,1.31,,,,,0,0,1490,1490,,False,,
2026-03-07T14:36:35,790.395,2.313380621999954,EVENT,DROP,[DROP] ARM_WAIT alt=-70.20 acc_med=9.829944048670876 dalt_med=0.093 baseline=-70.18 max_alt=-69.60,,,,,,,,,,,,,,,,,,,,,,,,,,,,,,,,,,,,
2026-03-07T14:36:35,790.396,2.313380621999954,ROW,DROP,arm_wait,-70.20271159168816,-0.56,-2.96,9.34,9.813806600906704,79.25,13.5625,-145.0,359.9375,-3.4375,17.6875,ARM_WAIT,9.829944048670876,0.09283358332582736,False,0,False,False,-70.1764304023002,-69.5959915681811,,,1,5,1.31,,,,,0,0,1490,1490,,False,,
2026-03-07T14:36:35,790.548,2.471383994000007,EVENT,DROP,[DROP] ARM_WAIT alt=-69.85 acc_med=9.829944048670876 dalt_med=0.130 baseline=-70.18 max_alt=-69.60,,,,,,,,,,,,,,,,,,,,,,,,,,,,,,,,,,,,
2026-03-07T14:36:35,790.548,2.471383994000007,ROW,DROP,arm_wait,-69.8472510108077,-0.56,-2.95,9.370000000000001,9.839359735267331,80.375,12.375,-146.25,359.9375,-3.4375,17.6875,ARM_WAIT,9.829944048670876,0.12998993257888003,False,0,False,False,-70.1764304023002,-69.5959915681811,,,1,5,1.31,,,,,0,0,1490,1490,,False,,
2026-03-07T14:36:36,790.704,2.6238480460000346,EVENT,DROP,[DROP] ARM_WAIT alt=-70.03 acc_med=9.827502225896467 dalt_med=0.130 baseline=-70.18 max_alt=-69.60,,,,,,,,,,,,,,,,,,,,,,,,,,,,,,,,,,,,
2026-03-07T14:36:36,790.705,2.6238480460000346,ROW,DROP,arm_wait,-70.0280507773406,-0.58,-2.97,9.35,9.827502225896467,80.375,12.0625,-144.1875,359.9375,-3.4375,17.6875,ARM_WAIT,9.827502225896467,0.12998993257888003,False,0,False,False,-70.1764304023002,-69.5959915681811,,,1,5,1.31,,,,,0,0,1490,1490,,False,,
2026-03-07T14:36:36,790.860,2.780664786999978,EVENT,DROP,[DROP] ARM_WAIT alt=-69.73 acc_med=9.825685726706304 dalt_med=0.130 baseline=-70.18 max_alt=-69.60,,,,,,,,,,,,,,,,,,,,,,,,,,,,,,,,,,,,
2026-03-07T14:36:36,790.861,2.780664786999978,ROW,DROP,arm_wait,-69.72945506858782,-0.6,-2.96,9.35,9.825685726706304,79.6875,12.75,-146.6875,359.9375,-3.4375,17.6875,ARM_WAIT,9.825685726706304,0.12998993257888003,False,0,False,False,-70.1764304023002,-69.5959915681811,,,1,5,1.31,,,,,0,0,1490,1490,,False,,
2026-03-07T14:36:36,791.016,2.937503090000064,EVENT,DROP,[DROP] ARM_WAIT alt=-69.72 acc_med=9.827502225896467 dalt_med=0.014 baseline=-70.18 max_alt=-69.60,,,,,,,,,,,,,,,,,,,,,,,,,,,,,,,,,,,,
2026-03-07T14:36:36,791.020,2.937503090000064,ROW,DROP,arm_wait,-69.71523601990661,-0.6,-2.99,9.35,9.834764867550215,78.5625,13.1875,-145.375,359.9375,-3.4375,17.6875,ARM_WAIT,9.827502225896467,0.014219048681212598,False,0,False,False,-70.1764304023002,-69.5959915681811,,,1,5,1.31,,,,,0,0,1490,1490,,False,,
2026-03-07T14:36:36,791.190,3.095902911000053,EVENT,DROP,[DROP] ARM_WAIT alt=-69.79 acc_med=9.829944048670876 dalt_med=0.014 baseline=-70.18 max_alt=-69.60,,,,,,,,,,,,,,,,,,,,,,,,,,,,,,,,,,,,
2026-03-07T14:36:36,791.191,3.095902911000053,ROW,DROP,arm_wait,-69.79037623486738,-0.6,-2.95,9.39,9.860760619749371,78.5625,12.75,-144.25,359.9375,-3.4375,17.6875,ARM_WAIT,9.829944048670876,0.014219048681212598,False,0,False,False,-70.1764304023002,-69.5959915681811,,,1,5,1.31,,,,,0,0,1490,1490,,False,,
2026-03-07T14:36:36,791.348,3.266638262000015,EVENT,DROP,[DROP] ARM_WAIT alt=-69.90 acc_med=9.829944048670876 dalt_med=-0.075 baseline=-70.18 max_alt=-69.60,,,,,,,,,,,,,,,,,,,,,,,,,,,,,,,,,,,,
2026-03-07T14:36:36,791.349,3.266638262000015,ROW,DROP,arm_wait,-69.90008219622902,-0.59,-2.96,9.33,9.806049153456248,79.25,13.1875,-145.5,359.9375,-3.4375,17.6875,ARM_WAIT,9.829944048670876,-0.0751402149607685,False,0,False,False,-70.1764304023002,-69.5959915681811,,,1,5,1.31,,,,,0,0,1490,1490,,False,,
2026-03-07T14:36:36,791.506,3.424584502000016,EVENT,DROP,[DROP] ARM_WAIT alt=-69.80 acc_med=9.829944048670876 dalt_med=0.014 baseline=-70.18 max_alt=-69.60,,,,,,,,,,,,,,,,,,,,,,,,,,,,,,,,,,,,
2026-03-07T14:36:36,791.506,3.424584502000016,ROW,DROP,arm_wait,-69.80055003189473,-0.59,-2.97,9.36,9.837611498732809,78.5625,12.75,-144.25,359.9375,-3.4375,17.6875,ARM_WAIT,9.829944048670876,0.014219048681212598,False,0,False,False,-70.1764304023002,-69.5959915681811,,,1,5,1.31,,,,,0,0,1490,1490,,False,,
2026-03-07T14:36:37,791.661,3.582225698000002,EVENT,DROP,[DROP] ARM_WAIT alt=-69.78 acc_med=9.834764867550215 dalt_med=0.014 baseline=-70.18 max_alt=-69.60,,,,,,,,,,,,,,,,,,,,,,,,,,,,,,,,,,,,
2026-03-07T14:36:37,791.662,3.582225698000002,ROW,DROP,arm_wait,-69.77615749420076,-0.62,-2.99,9.38,9.864527358165722,79.6875,12.375,-146.25,359.9375,-3.4375,17.6875,ARM_WAIT,9.834764867550215,0.014219048681212598,False,0,False,False,-70.1764304023002,-69.5959915681811,,,1,5,1.31,,,,,0,0,1490,1490,,False,,
2026-03-07T14:36:37,791.816,3.7379074210000454,EVENT,DROP,[DROP] ARM_WAIT alt=-69.90 acc_med=9.837611498732809 dalt_med=0.014 baseline=-70.18 max_alt=-69.60,,,,,,,,,,,,,,,,,,,,,,,,,,,,,,,,,,,,
2026-03-07T14:36:37,791.818,3.7379074210000454,ROW,DROP,arm_wait,-69.90412548798605,-0.59,-2.98,9.39,9.869174230907063,79.6875,12.375,-145.5,359.9375,-3.4375,17.6875,ARM_WAIT,9.837611498732809,0.014219048681212598,False,0,False,False,-70.1764304023002,-69.5959915681811,30.388398666666664,130.94483066666666,1,6,1.29,,,,,0,0,1490,1490,,False,,
2026-03-07T14:36:37,791.976,3.8938339290000386,EVENT,DROP,[DROP] ARM_WAIT alt=-70.08 acc_med=9.834764867550215 dalt_med=-0.075 baseline=-70.18 max_alt=-69.60,,,,,,,,,,,,,,,,,,,,,,,,,,,,,,,,,,,,
2026-03-07T14:36:37,791.976,3.8938339290000386,ROW,DROP,arm_wait,-70.08492521678,-0.58,-2.97,9.35,9.827502225896467,78.875,13.875,-142.5625,359.9375,-3.4375,17.6875,ARM_WAIT,9.834764867550215,-0.0751402149607685,False,0,False,False,-70.1764304023002,-69.5959915681811,30.388398666666664,130.94483066666666,1,6,1.29,,,,,0,0,1490,1490,,False,,
2026-03-07T14:36:37,792.128,4.051827408000008,EVENT,DROP,[DROP] ARM_WAIT alt=-69.78 acc_med=9.834764867550215 dalt_med=-0.075 baseline=-70.18 max_alt=-69.60,,,,,,,,,,,,,,,,,,,,,,,,,,,,,,,,,,,,
2026-03-07T14:36:37,792.128,4.051827408000008,ROW,DROP,arm_wait,-69.77615749420076,-0.5700000000000001,-2.96,9.36,9.83341751376397,79.6875,12.375,-148.0,359.9375,-3.4375,17.6875,ARM_WAIT,9.834764867550215,-0.0751402149607685,False,0,False,False,-70.1764304023002,-69.5959915681811,30.388398666666664,130.94483066666666,1,6,1.29,,,,,0,0,1490,1490,,False,,
2026-03-07T14:36:37,792.287,4.203908557999966,EVENT,DROP,[DROP] ARM_WAIT alt=-69.86 acc_med=9.83341751376397 dalt_med=-0.085 baseline=-70.18 max_alt=-69.60,,,,,,,,,,,,,,,,,,,,,,,,,,,,,,,,,,,,
2026-03-07T14:36:37,792.288,4.203908557999966,ROW,DROP,arm_wait,-69.86146965811122,-0.59,-2.97,9.35,9.828097476114083,78.875,13.5625,-145.0625,359.9375,-3.4375,17.6875,ARM_WAIT,9.83341751376397,-0.0853121639104586,False,0,False,False,-70.1764304023002,-69.5959915681811,30.388398666666664,130.94483066666666,1,6,1.29,,,,,0,0,1490,1490,,False,,
2026-03-07T14:36:37,792.440,4.36350594999999,EVENT,DROP,[DROP] ARM_WAIT alt=-69.79 acc_med=9.83341751376397 dalt_med=0.024 baseline=-70.18 max_alt=-69.60,,,,,,,,,,,,,,,,,,,,,,,,,,,,,,,,,,,,
2026-03-07T14:36:37,792.440,4.36350594999999,ROW,DROP,arm_wait,-69.79037623486738,-0.58,-2.98,9.35,9.830528978646063,78.875,13.1875,-146.25,359.9375,-3.4375,17.6875,ARM_WAIT,9.83341751376397,0.024392537693969985,False,0,False,False,-70.1764304023002,-69.5959915681811,30.388398666666664,130.94483066666666,1,6,1.29,,,,,0,0,1490,1490,,False,,
2026-03-07T14:36:37,792.591,4.516113177999955,EVENT,DROP,[DROP] ARM_WAIT alt=-69.98 acc_med=9.83341751376397 dalt_med=-0.085 baseline=-70.18 max_alt=-69.60,,,,,,,,,,,,,,,,,,,,,,,,,,,,,,,,,,,,
2026-03-07T14:36:37,792.592,4.516113177999955,ROW,DROP,arm_wait,-69.97989444068648,-0.59,-2.97,9.34,9.818584419354961,79.6875,12.75,-144.6875,359.9375,-3.4375,17.6875,ARM_WAIT,9.83341751376397,-0.0853121639104586,False,0,False,False,-70.1764304023002,-69.5959915681811,30.388398666666664,130.94483066666666,1,6,1.29,,,,,0,0,1490,1490,,False,,
2026-03-07T14:36:38,792.748,4.667552315999956,EVENT,DROP,[DROP] ARM_WAIT alt=-69.88 acc_med=9.83341751376397 dalt_med=-0.085 baseline=-70.18 max_alt=-69.60,,,,,,,,,,,,,,,,,,,,,,,,,,,,,,,,,,,,
2026-03-07T14:36:38,792.749,4.667552315999956,ROW,DROP,arm_wait,-69.88238488611988,-0.6,-2.99,9.35,9.834764867550215,78.875,13.1875,-145.875,359.9375,-3.4375,17.6875,ARM_WAIT,9.83341751376397,-0.0853121639104586,False,0,False,False,-70.1764304023002,-69.5959915681811,30.388398666666664,130.94483066666666,1,6,1.29,,,,,0,0,1490,1490,,False,,
2026-03-07T14:36:38,792.900,4.824195419000034,EVENT,DROP,[DROP] ARM_WAIT alt=-69.85 acc_med=9.830528978646063 dalt_med=0.028 baseline=-70.18 max_alt=-69.60,,,,,,,,,,,,,,,,,,,,,,,,,,,,,,,,,,,,
2026-03-07T14:36:38,792.900,4.824195419000034,ROW,DROP,arm_wait,-69.85394807501265,-0.56,-3.02,9.17,9.670723861221557,79.25,12.375,-145.875,359.9375,-3.4375,17.6875,ARM_WAIT,9.830528978646063,0.028436811107226845,False,0,False,False,-70.1764304023002,-69.5959915681811,30.388398666666664,130.94483066666666,1,5,1.31,,,,,0,0,1490,1490,,False,,
2026-03-07T14:36:38,793.053,4.975666744000023,EVENT,DROP,[DROP] ARM_WAIT alt=-69.68 acc_med=9.830528978646063 dalt_med=0.071 baseline=-70.18 max_alt=-69.60,,,,,,,,,,,,,,,,,,,,,,,,,,,,,,,,,,,,
2026-03-07T14:36:38,793.053,4.975666744000023,ROW,DROP,arm_wait,-69.68332563989863,-0.62,-2.98,9.34,9.823461711637094,80.375,12.375,-146.75,359.9375,-3.4375,17.6875,ARM_WAIT,9.830528978646063,0.0710934232438376,False,0,False,False,-70.1764304023002,-69.5959915681811,30.388398666666664,130.94483066666666,1,5,1.31,,,,,0,0,1490,1490,,False,,
2026-03-07T14:36:38,793.205,5.128622192999956,EVENT,DROP,[DROP] ARM_WAIT alt=-69.92 acc_med=9.830528978646063 dalt_med=0.028 baseline=-70.18 max_alt=-69.60,,,,,,,,,,,,,,,,,,,,,,,,,,,,,,,,,,,,
2026-03-07T14:36:38,793.205,5.128622192999956,ROW,DROP,arm_wait,-69.9183440605991,-0.61,-2.89,9.44,9.89129920687874,79.25,13.5625,-146.25,359.9375,-3.4375,17.6875,ARM_WAIT,9.830528978646063,0.028436811107226845,False,0,False,False,-70.1764304023002,-69.5959915681811,30.388398666666664,130.94483066666666,1,5,1.31,,,,,0,0,1490,1490,,False,,
2026-03-07T14:36:38,793.362,5.280645585000002,EVENT,DROP,[DROP] ARM_WAIT alt=-69.94 acc_med=9.828097476114083 dalt_med=0.028 baseline=-70.18 max_alt=-69.60,,,,,,,,,,,,,,,,,,,,,,,,,,,,,,,,,,,,
2026-03-07T14:36:38,793.363,5.280645585000002,ROW,DROP,arm_wait,-69.94476033004217,-0.5700000000000001,-2.97,9.33,9.80788968127191,79.6875,13.1875,-145.875,359.9375,-3.4375,17.6875,ARM_WAIT,9.828097476114083,0.028436811107226845,False,0,False,False,-70.1764304023002,-69.5959915681811,30.388398666666664,130.94483066666666,1,5,1.31,,,,,0,0,1490,1490,,False,,
2026-03-07T14:36:38,793.512,5.438260900000046,EVENT,DROP,[DROP] ARM_WAIT alt=-69.63 acc_med=9.827502225896467 dalt_med=0.028 baseline=-70.18 max_alt=-69.60,,,,,,,,,,,,,,,,,,,,,,,,,,,,,,,,,,,,
2026-03-07T14:36:38,793.513,5.438260900000046,ROW,DROP,arm_wait,-69.63396906050092,-0.6,-2.98,9.290000000000001,9.774686695746315,80.0625,13.1875,-144.6875,359.9375,-3.4375,17.6875,ARM_WAIT,9.827502225896467,0.028436811107226845,False,0,False,False,-70.1764304023002,-69.5959915681811,30.388398666666664,130.94483066666666,1,5,1.31,,,,,0,0,1490,1490,,False,,
2026-03-07T14:36:39,793.662,5.588807772999985,EVENT,DROP,[DROP] ARM_WAIT alt=-69.96 acc_med=9.823461711637094 dalt_med=0.028 baseline=-70.18 max_alt=-69.60,,,,,,,,,,,,,,,,,,,,,,,,,,,,,,,,,,,,
2026-03-07T14:36:39,793.662,5.588807772999985,ROW,DROP,arm_wait,-69.95897896329939,-0.6,-3.09,9.3,9.818253408829904,79.6875,12.375,-146.75,359.9375,-3.5,17.6875,ARM_WAIT,9.823461711637094,0.028436811107226845,False,0,False,False,-70.1764304023002,-69.5959915681811,30.388398666666664,130.94483066666666,1,5,1.31,,,,,0,0,1490,1490,,False,,
2026-03-07T14:36:39,793.812,5.737980206999964,EVENT,DROP,[DROP] ARM_WAIT alt=-70.00 acc_med=9.823461711637094 dalt_med=-0.026 baseline=-70.18 max_alt=-69.60,,,,,,,,,,,,,,,,,,,,,,,,,,,,,,,,,,,,
2026-03-07T14:36:39,793.814,5.737980206999964,ROW,DROP,arm_wait,-70.00365510415229,-0.51,-2.9,9.4,9.85038577924743,79.25,13.1875,-145.5,359.9375,-3.5,17.6875,ARM_WAIT,9.823461711637094,-0.02641626944307518,False,0,False,False,-70.1764304023002,-69.5959915681811,30.388317666666662,130.94474666666667,1,5,1.31,,,,,0,0,1490,1490,,False,,
2026-03-07T14:36:39,793.966,5.889440283999988,EVENT,DROP,[DROP] ARM_WAIT alt=-69.73 acc_med=9.823461711637094 dalt_med=-0.026 baseline=-70.18 max_alt=-69.60,,,,,,,,,,,,,,,,,,,,,,,,,,,,,,,,,,,,
2026-03-07T14:36:39,793.969,5.889440283999988,ROW,DROP,arm_wait,-69.72598150075999,-0.62,-3.0100000000000002,9.34,9.832603927749759,79.6875,12.75,-146.75,359.9375,-3.5,17.6875,ARM_WAIT,9.823461711637094,-0.02641626944307518,False,0,False,False,-70.1764304023002,-69.5959915681811,30.388317666666662,130.94474666666667,1,5,1.31,,,,,0,0,1490,1490,,False,,
2026-03-07T14:36:39,794.123,6.044189953,EVENT,DROP,[DROP] ARM_WAIT alt=-70.20 acc_med=9.823461711637094 dalt_med=-0.045 baseline=-70.18 max_alt=-69.60,,,,,,,,,,,,,,,,,,,,,,,,,,,,,,,,,,,,
2026-03-07T14:36:39,794.123,6.044189953,ROW,DROP,arm_wait,-70.20271159168816,-0.6,-2.96,9.370000000000001,9.84471939671213,80.0625,13.1875,-144.6875,359.9375,-3.5,17.6875,ARM_WAIT,9.823461711637094,-0.04467614085289995,False,0,False,False,-70.1764304023002,-69.5959915681811,30.388317666666662,130.94474666666667,1,5,1.31,,,,,0,0,1490,1490,,False,,
2026-03-07T14:36:39,794.275,6.198585310999988,EVENT,DROP,[DROP] ARM_WAIT alt=-69.81 acc_med=9.823461711637094 dalt_med=-0.026 baseline=-70.18 max_alt=-69.60,,,,,,,,,,,,,,,,,,,,,,,,,,,,,,,,,,,,
2026-03-07T14:36:39,794.275,6.198585310999988,ROW,DROP,arm_wait,-69.8078022581306,-0.5700000000000001,-2.96,9.3,9.776323439821333,79.25,13.5625,-146.375,359.9375,-3.5,17.6875,ARM_WAIT,9.823461711637094,-0.02641626944307518,False,0,False,False,-70.1764304023002,-69.5959915681811,30.388317666666662,130.94474666666667,1,5,1.31,,,,,0,0,1490,1490,,False,,
2026-03-07T14:36:39,794.428,6.350995308000051,EVENT,DROP,[DROP] ARM_WAIT alt=-69.78 acc_med=9.818253408829904 dalt_med=0.026 baseline=-70.18 max_alt=-69.60,,,,,,,,,,,,,,,,,,,,,,,,,,,,,,,,,,,,
2026-03-07T14:36:39,794.429,6.350995308000051,ROW,DROP,arm_wait,-69.78138185350414,-0.6,-2.95,9.34,9.813159531975417,80.75,13.1875,-145.875,359.9375,-3.5,17.6875,ARM_WAIT,9.818253408829904,0.026420404626449567,False,0,False,False,-70.1764304023002,-69.5959915681811,30.388317666666662,130.94474666666667,1,5,1.31,,,,,0,0,1490,1490,,False,,
2026-03-07T14:36:39,794.589,6.504285592999963,EVENT,DROP,[DROP] ARM_WAIT alt=-69.91 acc_med=9.823461711637094 dalt_med=-0.045 baseline=-70.18 max_alt=-69.60,,,,,,,,,,,,,,,,,,,,,,,,,,,,,,,,,,,,
2026-03-07T14:36:39,794.589,6.504285592999963,ROW,DROP,arm_wait,-69.90583120699239,-0.6,-2.95,9.39,9.860760619749371,79.25,12.75,-144.25,359.9375,-3.5,17.6875,ARM_WAIT,9.823461711637094,-0.04467614085289995,False,0,False,False,-70.1764304023002,-69.5959915681811,30.388317666666662,130.94474666666667,1,5,1.31,,,,,0,0,1490,1490,,False,,
2026-03-07T14:36:40,794.740,6.664685518000056,EVENT,DROP,[DROP] ARM_WAIT alt=-69.91 acc_med=9.819806515405483 dalt_med=0.000 baseline=-70.18 max_alt=-69.60,,,,,,,,,,,,,,,,,,,,,,,,,,,,,,,,,,,,
2026-03-07T14:36:40,794.742,6.664685518000056,ROW,DROP,arm_wait,-69.90583120699239,-0.61,-2.97,9.34,9.819806515405483,79.6875,12.75,-146.25,359.9375,-3.5,17.6875,ARM_WAIT,9.819806515405483,0.0,False,0,False,False,-70.1764304023002,-69.5959915681811,30.388317666666662,130.94474666666667,1,5,1.31,,,,,0,0,1490,1490,,False,,
2026-03-07T14:36:40,794.893,6.817570399000033,EVENT,DROP,[DROP] ARM_WAIT alt=-69.99 acc_med=9.819806515405483 dalt_med=0.000 baseline=-70.18 max_alt=-69.60,,,,,,,,,,,,,,,,,,,,,,,,,,,,,,,,,,,,
2026-03-07T14:36:40,794.893,6.817570399000033,ROW,DROP,arm_wait,-69.98559994526609,-0.56,-2.95,9.43,9.89651453795729,78.1875,12.75,-145.875,359.9375,-3.5,17.6875,ARM_WAIT,9.819806515405483,0.0,False,0,False,False,-70.1764304023002,-69.5959915681811,30.388317666666662,130.94474666666667,1,5,1.31,,,,,0,0,1490,1490,,False,,
2026-03-07T14:36:40,795.044,6.968661216999976,EVENT,DROP,[DROP] ARM_WAIT alt=-69.75 acc_med=9.819806515405483 dalt_med=0.000 baseline=-70.18 max_alt=-69.60,,,,,,,,,,,,,,,,,,,,,,,,,,,,,,,,,,,,
2026-03-07T14:36:40,795.045,6.968661216999976,ROW,DROP,arm_wait,-69.74792621048955,-0.58,-2.96,9.3,9.77691157779388,79.25,12.375,-146.75,359.9375,-3.5,17.6875,ARM_WAIT,9.819806515405483,0.0,False,0,False,False,-70.1764304023002,-69.5959915681811,30.388317666666662,130.94474666666667,1,5,1.31,,,,,0,0,1490,1490,,False,,
2026-03-07T14:36:40,795.202,7.120166398000038,EVENT,DROP,[DROP] ARM_WAIT alt=-69.48 acc_med=9.82161392032898 dalt_med=0.026 baseline=-70.18 max_alt=-69.48,,,,,,,,,,,,,,,,,,,,,,,,,,,,,,,,,,,,
2026-03-07T14:36:40,795.203,7.120166398000038,ROW,DROP,arm_wait,-69.48181703735351,-0.59,-2.98,9.34,9.82161392032898,80.375,12.375,-145.0625,359.9375,-3.5,17.6875,ARM_WAIT,9.82161392032898,0.026420404626449567,False,0,False,False,-70.1764304023002,-69.48181703735351,30.388317666666662,130.94474666666667,1,5,1.31,,,,,0,0,1490,1490,,False,,
2026-03-07T14:36:40,795.354,7.278645805999986,EVENT,DROP,[DROP] ARM_WAIT alt=-69.71 acc_med=9.82161392032898 dalt_med=0.000 baseline=-70.18 max_alt=-69.48,,,,,,,,,,,,,,,,,,,,,,,,,,,,,,,,,,,,
2026-03-07T14:36:40,795.356,7.278645805999986,ROW,DROP,arm_wait,-69.70928828001847,-0.58,-2.96,9.33,9.805452564772317,80.0625,12.75,-146.25,359.9375,-3.5,17.6875,ARM_WAIT,9.82161392032898,0.0,False,0,False,False,-70.1764304023002,-69.48181703735351,30.388317666666662,130.94474666666667,1,5,1.31,,,,,0,0,1490,1490,,False,,
2026-03-07T14:36:40,795.507,7.431333922000022,EVENT,DROP,[DROP] ARM_WAIT alt=-69.73 acc_med=9.82161392032898 dalt_med=-0.023 baseline=-70.18 max_alt=-69.48,,,,,,,,,,,,,,,,,,,,,,,,,,,,,,,,,,,,
2026-03-07T14:36:40,795.508,7.431333922000022,ROW,DROP,arm_wait,-69.73217413349295,-0.56,-2.96,9.36,9.832842925624307,79.25,12.75,-144.5625,359.9375,-3.5,17.6875,ARM_WAIT,9.82161392032898,-0.022885853474477358,False,0,False,False,-70.1764304023002,-69.48181703735351,30.388317666666662,130.94474666666667,1,5,1.31,,,,,0,0,1490,1490,,False,,
2026-03-07T14:36:41,795.664,7.5833757030000015,EVENT,DROP,[DROP] ARM_WAIT alt=-69.93 acc_med=9.82161392032898 dalt_med=-0.023 baseline=-70.18 max_alt=-69.48,,,,,,,,,,,,,,,,,,,,,,,,,,,,,,,,,,,,
2026-03-07T14:36:41,795.666,7.5833757030000015,ROW,DROP,arm_wait,-69.92564226066911,-0.55,-2.97,9.35,9.825777322939901,80.0625,12.75,-146.75,359.9375,-3.5,17.6875,ARM_WAIT,9.82161392032898,-0.022885853474477358,False,0,False,False,-70.1764304023002,-69.48181703735351,30.388317666666662,130.94474666666667,1,5,1.31,,,,,0,0,1490,1490,,False,,
2026-03-07T14:36:41,795.815,7.7412437240000145,EVENT,DROP,[DROP] ARM_WAIT alt=-69.80 acc_med=9.82161392032898 dalt_med=-0.023 baseline=-70.18 max_alt=-69.48,,,,,,,,,,,,,,,,,,,,,,,,,,,,,,,,,,,,
2026-03-07T14:36:41,795.816,7.7412437240000145,ROW,DROP,arm_wait,-69.7976989085918,-0.58,-2.98,9.4,9.878096982718889,78.1875,13.5625,-145.5,359.9375,-3.5,17.6875,ARM_WAIT,9.82161392032898,-0.022885853474477358,False,0,False,False,-70.1764304023002,-69.48181703735351,30.388317666666662,130.94474666666667,1,5,1.31,,,,,0,0,1490,1490,,False,,
2026-03-07T14:36:41,795.970,7.891573888000039,EVENT,DROP,[DROP] ARM_WAIT alt=-69.60 acc_med=9.825777322939901 dalt_med=0.128 baseline=-70.18 max_alt=-69.48,,,,,,,,,,,,,,,,,,,,,,,,,,,,,,,,,,,,
2026-03-07T14:36:41,795.970,7.891573888000039,ROW,DROP,arm_wait,-69.60267293326903,-0.56,-2.97,9.35,9.826342147513488,80.375,12.75,-146.75,359.9375,-3.5,17.6875,ARM_WAIT,9.825777322939901,0.12794335207730967,False,0,False,False,-70.1764304023002,-69.48181703735351,30.388317666666662,130.94474666666667,1,5,1.31,,,,,0,0,1490,1490,,False,,
2026-03-07T14:36:41,796.121,8.045743265000056,EVENT,DROP,[DROP] ARM_WAIT alt=-69.48 acc_med=9.825777322939901 dalt_med=0.126 baseline=-70.18 max_alt=-69.48,,,,,,,,,,,,,,,,,,,,,,,,,,,,,,,,,,,,
2026-03-07T14:36:41,796.122,8.045743265000056,ROW,DROP,arm_wait,-69.47672744961818,-0.54,-2.96,9.33,9.803167855341457,78.875,12.375,-144.5625,359.9375,-3.5,17.6875,ARM_WAIT,9.825777322939901,0.12594548365085245,False,0,False,False,-70.1764304023002,-69.47672744961818,30.388317666666662,130.94474666666667,1,5,1.31,,,,,0,0,1490,1490,,False,,
2026-03-07T14:36:41,796.279,8.197433025999999,EVENT,DROP,[DROP] ARM_WAIT alt=-69.70 acc_med=9.82161392032898 dalt_med=-0.023 baseline=-70.18 max_alt=-69.48,,,,,,,,,,,,,,,,,,,,,,,,,,,,,,,,,,,,
2026-03-07T14:36:41,796.280,8.197433025999999,ROW,DROP,arm_wait,-69.702184756514,-0.5700000000000001,-2.95,9.35,9.820890998275054,80.0625,12.0625,-145.0625,359.9375,-3.5,17.6875,ARM_WAIT,9.82161392032898,-0.022885853474477358,False,0,False,False,-70.1764304023002,-69.47672744961818,30.388317666666662,130.94474666666667,1,5,1.31,,,,,0,0,1490,1490,,False,,
2026-03-07T14:36:41,796.435,8.356494710999982,EVENT,DROP,[DROP] ARM_WAIT alt=-69.90 acc_med=9.825777322939901 dalt_med=-0.023 baseline=-70.18 max_alt=-69.48,,,,,,,,,,,,,,,,,,,,,,,,,,,,,,,,,,,,
2026-03-07T14:36:41,796.435,8.356494710999982,ROW,DROP,arm_wait,-69.90120565916213,-0.59,-2.94,9.370000000000001,9.838119739055832,80.0625,13.1875,-147.0625,359.9375,-3.5,17.6875,ARM_WAIT,9.825777322939901,-0.022885853474477358,False,0,False,False,-70.1764304023002,-69.47672744961818,30.388317666666662,130.94474666666667,1,5,1.31,,,,,0,0,1490,1490,,False,,
2026-03-07T14:36:41,796.597,8.511006422000037,EVENT,DROP,[DROP] ARM_WAIT alt=-69.78 acc_med=9.825777322939901 dalt_med=0.126 baseline=-70.18 max_alt=-69.48,,,,,,,,,,,,,,,,,,,,,,,,,,,,,,,,,,,,
2026-03-07T14:36:41,796.597,8.511006422000037,ROW,DROP,arm_wait,-69.77526125422182,-0.59,-2.98,9.39,9.869174230907063,79.6875,13.1875,-145.5,359.9375,-3.5,17.6875,ARM_WAIT,9.825777322939901,0.1259444049403129,False,0,False,False,-70.1764304023002,-69.47672744961818,30.388317666666662,130.94474666666667,1,5,1.31,,,,,0,0,1490,1490,,False,,
2026-03-07T14:36:42,796.753,8.673215464999998,EVENT,DROP,[DROP] ARM_WAIT alt=-69.57 acc_med=9.825777322939901 dalt_med=0.126 baseline=-70.18 max_alt=-69.48,,,,,,,,,,,,,,,,,,,,,,,,,,,,,,,,,,,,
2026-03-07T14:36:42,796.753,8.673215464999998,ROW,DROP,arm_wait,-69.57466110266402,-0.58,-2.95,9.32,9.792920912577616,80.375,12.375,-147.0625,359.9375,-3.5,17.6875,ARM_WAIT,9.825777322939901,0.12594548365085245,False,0,False,False,-70.1764304023002,-69.47672744961818,30.388317666666662,130.94474666666667,1,5,1.31,,,,,0,0,1490,1490,,False,,
2026-03-07T14:36:42,796.905,8.829145105000066,EVENT,DROP,[DROP] ARM_WAIT alt=-69.49 acc_med=9.825777322939901 dalt_med=0.126 baseline=-70.18 max_alt=-69.48,,,,,,,,,,,,,,,,,,,,,,,,,,,,,,,,,,,,
2026-03-07T14:36:42,796.906,8.829145105000066,ROW,DROP,arm_wait,-69.48936838323225,-0.5700000000000001,-2.97,9.33,9.80788968127191,78.875,12.75,-144.25,359.9375,-3.5,17.6875,ARM_WAIT,9.825777322939901,0.1259444049403129,False,0,False,False,-70.1764304023002,-69.47672744961818,30.388317666666662,130.94474666666667,1,6,2.3,,,,,0,0,1490,1490,,False,,
2026-03-07T14:36:42,797.070,8.98128594800005,EVENT,DROP,[DROP] ARM_WAIT alt=-69.70 acc_med=9.825777322939901 dalt_med=0.085 baseline=-70.18 max_alt=-69.48,,,,,,,,,,,,,,,,,,,,,,,,,,,,,,,,,,,,
2026-03-07T14:36:42,797.072,8.98128594800005,ROW,DROP,arm_wait,-69.70060578238815,-0.5700000000000001,-2.94,9.35,9.817891830734334,79.6875,12.375,-146.25,359.9375,-3.5,17.6875,ARM_WAIT,9.825777322939901,0.08529271943177719,False,0,False,False,-70.1764304023002,-69.47672744961818,30.388317666666662,130.94474666666667,1,6,2.3,,,,,0,0,1490,1490,,False,,
2026-03-07T14:36:42,797.225,9.149104310999974,EVENT,DROP,[DROP] ARM_WAIT alt=-69.67 acc_med=9.825777322939901 dalt_med=0.030 baseline=-70.18 max_alt=-69.48,,,,,,,,,,,,,,,,,,,,,,,,,,,,,,,,,,,,
2026-03-07T14:36:42,797.226,9.149104310999974,ROW,DROP,arm_wait,-69.67018072887126,-0.56,-2.97,9.36,9.835857868025544,79.25,11.6875,-147.0625,359.9375,-3.5,17.6875,ARM_WAIT,9.825777322939901,0.030425053516893286,False,0,False,False,-70.1764304023002,-69.47672744961818,30.388317666666662,130.94474666666667,1,6,2.3,,,,,0,0,1490,1490,,False,,
2026-03-07T14:36:42,797.379,9.301395618000015,EVENT,DROP,[DROP] ARM_WAIT alt=-69.90 acc_med=9.826342147513488 dalt_med=0.030 baseline=-70.18 max_alt=-69.48,,,,,,,,,,,,,,,,,,,,,,,,,,,,,,,,,,,,
2026-03-07T14:36:42,797.379,9.301395618000015,ROW,DROP,arm_wait,-69.90320179352516,-0.62,-2.96,9.38,9.855475635401875,78.875,12.75,-145.5,359.9375,-3.5,17.6875,ARM_WAIT,9.826342147513488,0.030425053516893286,False,0,False,False,-70.1764304023002,-69.47672744961818,30.388317666666662,130.94474666666667,1,6,2.3,,,,,0,0,1490,1490,,False,,
2026-03-07T14:36:42,797.537,9.454708041999993,EVENT,DROP,[DROP] ARM_WAIT alt=-69.84 acc_med=9.822072082814298 dalt_med=0.066 baseline=-70.18 max_alt=-69.48,,,,,,,,,,,,,,,,,,,,,,,,,,,,,,,,,,,,
2026-03-07T14:36:42,797.537,9.454708041999993,ROW,DROP,arm_wait,-69.83677667803029,-0.59,-2.95,9.35,9.822072082814298,79.25,12.375,-146.75,359.9375,-3.5,17.6875,ARM_WAIT,9.822072082814298,0.06642511549486585,False,0,False,False,-70.1764304023002,-69.47672744961818,30.388317666666662,130.94474666666667,1,6,2.3,,,,,0,0,1490,1490,,False,,
2026-03-07T14:36:43,797.690,9.613074539999957,EVENT,DROP,[DROP] ARM_WAIT alt=-69.50 acc_med=9.822072082814298 dalt_med=0.066 baseline=-70.18 max_alt=-69.48,,,,,,,,,,,,,,,,,,,,,,,,,,,,,,,,,,,,
2026-03-07T14:36:43,797.690,9.613074539999957,ROW,DROP,arm_wait,-69.49559908439032,-0.6,-2.97,9.4,9.87627966392204,76.6875,12.75,-145.0625,359.9375,-3.5,17.6875,ARM_WAIT,9.822072082814298,0.06642511549486585,False,0,False,False,-70.1764304023002,-69.47672744961818,30.388317666666662,130.94474666666667,1,6,2.3,,,,,0,0,1490,1490,,False,,
2026-03-07T14:36:43,797.843,9.765888229999973,EVENT,DROP,[DROP] ARM_WAIT alt=-69.83 acc_med=9.835857868025544 dalt_med=0.030 baseline=-70.18 max_alt=-69.48,,,,,,,,,,,,,,,,,,,,,,,,,,,,,,,,,,,,
2026-03-07T14:36:43,797.843,9.765888229999973,ROW,DROP,arm_wait,-69.82655009778455,-0.59,-2.98,9.38,9.859660237553827,78.5625,13.1875,-146.75,359.9375,-3.5,17.6875,ARM_WAIT,9.835857868025544,0.030425053516893286,False,0,False,False,-70.1764304023002,-69.47672744961818,30.388317666666662,130.94474666666667,1,6,1.29,,,,,0,0,1490,1490,,False,,
2026-03-07T14:36:43,798.014,9.919376900999964,EVENT,DROP,[DROP] ARM_WAIT alt=-69.70 acc_med=9.835857868025544 dalt_med=0.030 baseline=-70.18 max_alt=-69.48,,,,,,,,,,,,,,,,,,,,,,,,,,,,,,,,,,,,
2026-03-07T14:36:43,798.015,9.919376900999964,ROW,DROP,arm_wait,-69.69861169119577,-0.58,-2.95,9.35,9.82147646741568,75.875,11.6875,-146.25,359.9375,-3.5,17.6875,ARM_WAIT,9.835857868025544,0.030425053516893286,False,0,False,False,-70.1764304023002,-69.47672744961818,30.388317666666662,130.94474666666667,1,6,1.29,,,,,0,0,1490,1490,,False,,
2026-03-07T14:36:43,798.166,10.09042251599999,EVENT,DROP,[DROP] ARM_WAIT alt=-69.56 acc_med=9.831286792683855 dalt_med=0.066 baseline=-70.18 max_alt=-69.48,,,,,,,,,,,,,,,,,,,,,,,,,,,,,,,,,,,,
2026-03-07T14:36:43,798.166,10.09042251599999,ROW,DROP,arm_wait,-69.5604456960889,-0.54,-2.99,9.35,9.831286792683855,80.75,11.25,-146.25,359.9375,-3.5,17.6875,ARM_WAIT,9.831286792683855,0.06642511549486585,False,0,False,False,-70.1764304023002,-69.47672744961818,30.388317666666662,130.94474666666667,1,6,1.29,,,,,0,0,1490,1490,,False,,
2026-03-07T14:36:43,798.322,10.241962179999973,EVENT,DROP,[DROP] ARM_WAIT alt=-69.45 acc_med=9.831286792683855 dalt_med=0.114 baseline=-70.18 max_alt=-69.45,,,,,,,,,,,,,,,,,,,,,,,,,,,,,,,,,,,,
2026-03-07T14:36:43,798.322,10.241962179999973,ROW,DROP,arm_wait,-69.44672177154918,-0.58,-2.98,9.36,9.840040650322537,73.25,12.0625,-146.25,359.9375,-3.5,17.6875,ARM_WAIT,9.831286792683855,0.1137239245397268,False,0,False,False,-70.1764304023002,-69.44672177154918,30.388317666666662,130.94474666666667,1,6,1.29,,,,,0,0,1490,1490,,False,,
2026-03-07T14:36:43,798.484,10.398102440999992,EVENT,DROP,[DROP] ARM_WAIT alt=-69.63 acc_med=9.835857868025544 dalt_med=0.114 baseline=-70.18 max_alt=-69.45,,,,,,,,,,,,,,,,,,,,,,,,,,,,,,,,,,,,
2026-03-07T14:36:43,798.485,10.398102440999992,ROW,DROP,arm_wait,-69.63152254232689,-0.53,-2.98,9.39,9.865769103318808,70.5625,12.75,-147.5625,359.9375,-3.5,17.6875,ARM_WAIT,9.835857868025544,0.1137239245397268,False,0,False,False,-70.1764304023002,-69.44672177154918,30.388317666666662,130.94474666666667,1,6,1.29,,,,,0,0,1490,1490,,False,,
2026-03-07T14:36:44,798.657,10.56059173899996,EVENT,DROP,[DROP] ARM_WAIT alt=-69.81 acc_med=9.840040650322537 dalt_med=0.114 baseline=-70.18 max_alt=-69.45,,,,,,,,,,,,,,,,,,,,,,,,,,,,,,,,,,,,
2026-03-07T14:36:44,798.658,10.56059173899996,ROW,DROP,arm_wait,-69.80834562251985,-0.59,-2.96,9.370000000000001,9.844114993233267,80.75,11.6875,-147.5,359.9375,-3.5,17.6875,ARM_WAIT,9.840040650322537,0.1137239245397268,False,0,False,False,-70.1764304023002,-69.44672177154918,30.388317666666662,130.94474666666667,1,6,1.29,,,,,0,0,1490,1490,,False,,
2026-03-07T14:36:44,798.821,10.735054235999996,EVENT,DROP,[DROP] ARM_WAIT alt=-69.95 acc_med=9.844114993233267 dalt_med=-0.138 baseline=-70.18 max_alt=-69.45,,,,,,,,,,,,,,,,,,,,,,,,,,,,,,,,,,,,
2026-03-07T14:36:44,798.821,10.735054235999996,ROW,DROP,arm_wait,-69.94584830399022,-0.59,-2.96,9.370000000000001,9.844114993233267,68.375,12.375,-147.5625,359.9375,-3.5,17.6875,ARM_WAIT,9.844114993233267,-0.13750268147036593,False,0,False,False,-70.1764304023002,-69.44672177154918,30.388230666666665,130.94464000000002,1,5,2.67,,,,,0,0,1490,1490,,False,,
2026-03-07T14:36:44,798.982,10.89803456300001,EVENT,DROP,[DROP] ARM_WAIT alt=-69.54 acc_med=9.844114993233267 dalt_med=0.114 baseline=-70.18 max_alt=-69.45,,,,,,,,,,,,,,,,,,,,,,,,,,,,,,,,,,,,
2026-03-07T14:36:44,798.983,10.89803456300001,ROW,DROP,arm_wait,-69.54224047449027,-0.55,-2.98,9.38,9.857347513403392,67.25,13.1875,-146.75,359.9375,-3.5,17.6875,ARM_WAIT,9.844114993233267,0.1137239245397268,False,0,False,False,-70.1764304023002,-69.44672177154918,30.388230666666665,130.94464000000002,1,5,2.67,,,,,0,0,1490,1490,,False,,
2026-03-07T14:36:44,799.152,11.058445693000067,EVENT,DROP,[DROP] ARM_WAIT alt=-69.72 acc_med=9.844114993233267 dalt_med=-0.138 baseline=-70.18 max_alt=-69.45,,,,,,,,,,,,,,,,,,,,,,,,,,,,,,,,,,,,
2026-03-07T14:36:44,799.153,11.058445693000067,ROW,DROP,arm_wait,-69.72305200805235,-0.5700000000000001,-2.97,9.35,9.826917115759143,79.6875,12.0625,-146.25,359.9375,-3.5,17.6875,ARM_WAIT,9.844114993233267,-0.13750268147036593,False,0,False,False,-70.1764304023002,-69.44672177154918,30.388230666666665,130.94464000000002,1,5,2.67,,,,,0,0,1490,1490,,False,,
2026-03-07T14:36:44,799.310,11.228854504999958,EVENT,DROP,[DROP] ARM_WAIT alt=-69.66 acc_med=9.844114993233267 dalt_med=-0.138 baseline=-70.18 max_alt=-69.45,,,,,,,,,,,,,,,,,,,,,,,,,,,,,,,,,,,,
2026-03-07T14:36:44,799.311,11.228854504999958,ROW,DROP,arm_wait,-69.6595369442611,-0.59,-2.94,9.36,9.828596034022356,69.875,13.1875,-147.1875,359.9375,-3.5,17.6875,ARM_WAIT,9.844114993233267,-0.13750268147036593,False,0,False,False,-70.1764304023002,-69.44672177154918,30.388230666666665,130.94464000000002,1,5,2.67,,,,,0,0,1490,1490,,False,,
2026-03-07T14:36:44,799.475,11.386536129999968,EVENT,DROP,[DROP] ARM_WAIT alt=-69.82 acc_med=9.840040650322537 dalt_med=-0.162 baseline=-70.18 max_alt=-69.45,,,,,,,,,,,,,,,,,,,,,,,,,,,,,,,,,,,,
2026-03-07T14:36:44,799.476,11.386536129999968,ROW,DROP,arm_wait,-69.82147438367883,-0.56,-2.95,9.36,9.829837231612737,79.6875,13.1875,-145.875,359.9375,-3.5,17.6875,ARM_WAIT,9.840040650322537,-0.1619374394177271,False,0,False,False,-70.1764304023002,-69.44672177154918,30.388230666666665,130.94464000000002,1,5,2.67,,,,,0,0,1490,1490,,False,,
2026-03-07T14:36:45,799.637,11.552285023999957,EVENT,DROP,[DROP] ARM_WAIT alt=-69.81 acc_med=9.840040650322537 dalt_med=-0.138 baseline=-70.18 max_alt=-69.45,,,,,,,,,,,,,,,,,,,,,,,,,,,,,,,,,,,,
2026-03-07T14:36:45,799.638,11.552285023999957,ROW,DROP,arm_wait,-69.81191491126353,-0.71,-2.99,9.38,9.87059268737192,79.6875,12.0625,-145.875,359.9375,-3.5,17.6875,ARM_WAIT,9.840040650322537,-0.13750268147036593,False,0,False,False,-70.1764304023002,-69.44672177154918,30.388230666666665,130.94464000000002,1,5,2.67,,,,,0,0,1490,1490,,False,,
2026-03-07T14:36:45,799.799,11.713507381,EVENT,DROP,[DROP] ARM_WAIT alt=-69.79 acc_med=9.840040650322537 dalt_med=0.010 baseline=-70.18 max_alt=-69.45,,,,,,,,,,,,,,,,,,,,,,,,,,,,,,,,,,,,
2026-03-07T14:36:45,799.799,11.713507381,ROW,DROP,arm_wait,-69.79304216554426,-0.54,-2.96,9.36,9.831724162119276,43.6875,10.0,-90.1875,359.9375,-3.4375,17.6875,ARM_WAIT,9.840040650322537,0.009559472415304526,False,0,False,False,-70.1764304023002,-69.44672177154918,30.388213166666667,130.94461433333333,1,5,2.67,,,,,0,0,1490,1490,,False,,
2026-03-07T14:36:45,799.958,11.874525839000057,EVENT,DROP,[DROP] ARM_WAIT alt=-69.76 acc_med=9.840040650322537 dalt_med=0.019 baseline=-70.18 max_alt=-69.45,,,,,,,,,,,,,,,,,,,,,,,,,,,,,,,,,,,,
2026-03-07T14:36:45,799.958,11.874525839000057,ROW,DROP,arm_wait,-69.76260889600512,-0.59,-2.97,9.35,9.828097476114083,47.5,6.5625,-89.75,359.9375,-3.4375,17.6875,ARM_WAIT,9.840040650322537,0.018872745719264117,False,0,False,False,-70.1764304023002,-69.44672177154918,30.388213166666667,130.94461433333333,1,4,10.08,,,,,0,0,1490,1490,,False,,
2026-03-07T14:36:45,800.159,12.034168086000022,EVENT,DROP,[DROP] ARM_WAIT alt=-69.70 acc_med=9.831724162119276 dalt_med=0.019 baseline=-70.18 max_alt=-69.45,,,,,,,,,,,,,,,,,,,,,,,,,,,,,,,,,,,,
2026-03-07T14:36:45,800.160,12.034168086000022,ROW,DROP,arm_wait,-69.70173787796838,-0.61,-2.95,9.33,9.80425927849728,49.0,8.5,-89.375,359.9375,-3.4375,17.6875,ARM_WAIT,9.831724162119276,0.018872745719264117,False,0,False,False,-70.1764304023002,-69.44672177154918,30.388213166666667,130.94461433333333,1,4,10.08,,,,,0,0,1490,1490,,False,,
2026-03-07T14:36:45,800.328,12.235849493000046,EVENT,DROP,[DROP] ARM_WAIT alt=-69.58 acc_med=9.829837231612737 dalt_med=0.030 baseline=-70.18 max_alt=-69.45,,,,,,,,,,,,,,,,,,,,,,,,,,,,,,,,,,,,
2026-03-07T14:36:45,800.328,12.235849493000046,ROW,DROP,arm_wait,-69.58445662858874,-0.54,-2.95,9.36,9.828718125981638,49.0,7.6875,-90.25,359.9375,-3.4375,17.6875,ARM_WAIT,9.829837231612737,0.030433269539145158,False,0,False,False,-70.1764304023002,-69.44672177154918,30.388213166666667,130.94461433333333,1,4,10.08,,,,,0,0,1490,1490,,False,,
2026-03-07T14:36:45,800.482,12.404003787999955,EVENT,DROP,[DROP] ARM_WAIT alt=-69.88 acc_med=9.829837231612737 dalt_med=0.019 baseline=-70.18 max_alt=-69.45,,,,,,,,,,,,,,,,,,,,,,,,,,,,,,,,,,,,
2026-03-07T14:36:45,800.483,12.404003787999955,ROW,DROP,arm_wait,-69.87833859595526,-0.5700000000000001,-2.98,9.35,9.829944048670876,49.0,10.6875,-89.875,359.9375,-3.4375,17.6875,ARM_WAIT,9.829837231612737,0.018872745719264117,False,0,False,False,-70.1764304023002,-69.44672177154918,30.388213166666667,130.94461433333333,1,4,10.08,,,,,0,0,1490,1490,,False,,
2026-03-07T14:36:46,800.637,12.558565452000039,EVENT,DROP,[DROP] ARM_WAIT alt=-69.72 acc_med=9.828718125981638 dalt_med=0.030 baseline=-70.18 max_alt=-69.45,,,,,,,,,,,,,,,,,,,,,,,,,,,,,,,,,,,,
2026-03-07T14:36:46,800.637,12.558565452000039,ROW,DROP,arm_wait,-69.71995996692867,-0.61,-2.95,9.33,9.80425927849728,48.1875,8.0625,-89.0,359.9375,-3.4375,17.6875,ARM_WAIT,9.828718125981638,0.030433269539145158,False,0,False,False,-70.1764304023002,-69.44672177154918,30.388213166666667,130.94461433333333,1,4,10.08,,,,,0,0,1490,1490,,False,,
2026-03-07T14:36:46,800.797,12.714019538999992,EVENT,DROP,[DROP] ARM_WAIT alt=-69.66 acc_med=9.828718125981638 dalt_med=0.061 baseline=-70.18 max_alt=-69.45,,,,,,,,,,,,,,,,,,,,,,,,,,,,,,,,,,,,
2026-03-07T14:36:46,800.799,12.714019538999992,ROW,DROP,arm_wait,-69.65908802511396,-0.61,-2.98,9.36,9.841854500042153,49.0,10.375,-89.875,359.9375,-3.4375,17.6875,ARM_WAIT,9.828718125981638,0.060871018036735336,False,0,False,False,-70.1764304023002,-69.44672177154918,30.388213166666667,130.94461433333333,1,5,2.67,,,,,0,0,1490,1490,,False,,
2026-03-07T14:36:46,800.952,12.874638269999991,EVENT,DROP,[DROP] ARM_WAIT alt=-69.74 acc_med=9.829837231612737 dalt_med=0.061 baseline=-70.18 max_alt=-69.45,,,,,,,,,,,,,,,,,,,,,,,,,,,,,,,,,,,,
2026-03-07T14:36:46,800.957,12.874638269999991,ROW,DROP,arm_wait,-69.74083471124757,-0.56,-2.96,9.36,9.832842925624307,50.0625,8.0625,-89.875,359.9375,-3.4375,17.6875,ARM_WAIT,9.829837231612737,0.060871018036735336,False,0,False,False,-70.1764304023002,-69.44672177154918,30.388213166666667,130.94461433333333,1,5,2.67,,,,,0,0,1490,1490,,False,,
2026-03-07T14:36:46,801.109,13.032272035000005,EVENT,DROP,[DROP] ARM_WAIT alt=-69.38 acc_med=9.829837231612737 dalt_med=0.061 baseline=-70.18 max_alt=-69.38,,,,,,,,,,,,,,,,,,,,,,,,,,,,,,,,,,,,
2026-03-07T14:36:46,801.110,13.032272035000005,ROW,DROP,arm_wait,-69.3752139027149,-0.55,-2.94,9.33,9.797703812628754,49.25,8.5,-89.875,359.9375,-3.4375,17.6875,ARM_WAIT,9.829837231612737,0.06087194181471034,False,0,False,False,-70.1764304023002,-69.3752139027149,30.388213166666667,130.94461433333333,1,5,2.67,,,,,0,0,1490,1490,,False,,
2026-03-07T14:36:46,801.272,13.185617016000037,EVENT,DROP,[DROP] ARM_WAIT alt=-69.63 acc_med=9.828718125981638 dalt_med=0.061 baseline=-70.18 max_alt=-69.38,,,,,,,,,,,,,,,,,,,,,,,,,,,,,,,,,,,,
2026-03-07T14:36:46,801.273,13.185617016000037,ROW,DROP,arm_wait,-69.62710542058825,-0.54,-2.93,9.35,9.813205388658693,50.0625,8.0625,-89.875,359.9375,-3.4375,17.6875,ARM_WAIT,9.828718125981638,0.06087194181471034,False,0,False,False,-70.1764304023002,-69.3752139027149,30.388213166666667,130.94461433333333,1,5,2.67,,,,,0,0,1490,1490,,False,,
2026-03-07T14:36:46,801.430,13.348884526000006,EVENT,DROP,[DROP] ARM_WAIT alt=-69.49 acc_med=9.828718125981638 dalt_med=0.061 baseline=-70.18 max_alt=-69.38,,,,,,,,,,,,,,,,,,,,,,,,,,,,,,,,,,,,
2026-03-07T14:36:46,801.431,13.348884526000006,ROW,DROP,arm_wait,-69.48694354717051,-0.58,-2.99,9.36,9.84307370692712,47.75,7.375,-89.0,359.9375,-3.4375,17.6875,ARM_WAIT,9.828718125981638,0.06087194181471034,False,0,False,False,-70.1764304023002,-69.3752139027149,30.388213166666667,130.94461433333333,1,5,2.67,,,,,0,0,1490,1490,,False,,
2026-03-07T14:36:46,801.597,13.506421471000067,EVENT,DROP,[DROP] ARM_WAIT alt=-69.57 acc_med=9.828718125981638 dalt_med=0.061 baseline=-70.18 max_alt=-69.38,,,,,,,,,,,,,,,,,,,,,,,,,,,,,,,,,,,,
2026-03-07T14:36:46,801.598,13.506421471000067,ROW,DROP,arm_wait,-69.5702403272535,-0.56,-2.94,9.370000000000001,9.836366198957826,49.25,8.0625,-89.375,359.9375,-3.4375,17.6875,ARM_WAIT,9.828718125981638,0.06087194181471034,False,0,False,False,-70.1764304023002,-69.3752139027149,30.388213166666667,130.94461433333333,1,5,2.67,,,,,0,0,1490,1490,,False,,
2026-03-07T14:36:47,801.750,13.674171092000051,EVENT,DROP,[DROP] ARM_WAIT alt=-69.60 acc_med=9.829944048670876 dalt_med=-0.032 baseline=-70.18 max_alt=-69.38,,,,,,,,,,,,,,,,,,,,,,,,,,,,,,,,,,,,
2026-03-07T14:36:47,801.751,13.674171092000051,ROW,DROP,arm_wait,-69.60267293326903,-0.5700000000000001,-2.97,9.36,9.83643228004951,48.1875,7.6875,-89.375,359.9375,-3.4375,17.6875,ARM_WAIT,9.829944048670876,-0.03243260601553288,False,0,False,False,-70.1764304023002,-69.3752139027149,30.388195166666666,130.94457599999998,1,5,2.67,,,,,0,0,1490,1490,,False,,
2026-03-07T14:36:47,801.908,13.826755055000035,EVENT,DROP,[DROP] ARM_WAIT alt=-69.60 acc_med=9.829944048670876 dalt_med=-0.032 baseline=-70.18 max_alt=-69.38,,,,,,,,,,,,,,,,,,,,,,,,,,,,,,,,,,,,
2026-03-07T14:36:47,801.909,13.826755055000035,ROW,DROP,arm_wait,-69.59867291125136,-0.5700000000000001,-2.98,9.34,9.820432780687417,49.0,8.0625,-90.6875,359.9375,-3.4375,17.6875,ARM_WAIT,9.829944048670876,-0.03243260601553288,False,0,False,False,-70.1764304023002,-69.3752139027149,30.388195166666666,130.94457599999998,1,5,2.67,,,,,0,0,1490,1490,,False,,
2026-03-07T14:36:47,802.069,13.984842818000061,EVENT,DROP,[DROP] ARM_WAIT alt=-69.39 acc_med=9.829944048670876 dalt_med=0.004 baseline=-70.18 max_alt=-69.38,,,,,,,,,,,,,,,,,,,,,,,,,,,,,,,,,,,,
2026-03-07T14:36:47,802.069,13.984842818000061,ROW,DROP,arm_wait,-69.38943023212306,-0.58,-2.98,9.34,9.821018277144177,47.75,8.5,-88.1875,359.9375,-3.4375,17.6875,ARM_WAIT,9.829944048670876,0.004000022017677907,False,0,False,False,-70.1764304023002,-69.3752139027149,30.388195166666666,130.94457599999998,1,5,2.67,,,,,0,0,1490,1490,,False,,
2026-03-07T14:36:47,802.230,14.145002189000024,EVENT,DROP,[DROP] ARM_WAIT alt=-69.49 acc_med=9.832842925624307 dalt_med=-0.032 baseline=-70.18 max_alt=-69.38,,,,,,,,,,,,,,,,,,,,,,,,,,,,,,,,,,,,
2026-03-07T14:36:47,802.231,14.145002189000024,ROW,DROP,arm_wait,-69.49449936717467,-0.5700000000000001,-2.98,9.38,9.858483656222187,47.75,7.6875,-90.5625,359.9375,-3.4375,17.6875,ARM_WAIT,9.832842925624307,-0.03243260601553288,False,0,False,False,-70.1764304023002,-69.3752139027149,30.388195166666666,130.94457599999998,1,5,2.67,,,,,0,0,1490,1490,,False,,
2026-03-07T14:36:47,802.386,14.307801120000022,EVENT,DROP,[DROP] ARM_WAIT alt=-69.52 acc_med=9.836366198957826 dalt_med=-0.028 baseline=-70.18 max_alt=-69.38,,,,,,,,,,,,,,,,,,,,,,,,,,,,,,,,,,,,
2026-03-07T14:36:47,802.387,14.307801120000022,ROW,DROP,arm_wait,-69.52293236931325,-0.5700000000000001,-2.93,9.42,9.881609180695218,50.0625,7.6875,-91.0625,359.9375,-3.4375,17.6875,ARM_WAIT,9.836366198957826,-0.02843300213858413,False,0,False,False,-70.1764304023002,-69.3752139027149,30.388195166666666,130.94457599999998,1,5,2.67,,,,,0,0,1490,1490,,False,,
2026-03-07T14:36:47,802.546,14.462679392000041,EVENT,DROP,[DROP] ARM_WAIT alt=-69.80 acc_med=9.832842925624307 dalt_med=-0.032 baseline=-70.18 max_alt=-69.38,,,,,,,,,,,,,,,,,,,,,,,,,,,,,,,,,,,,
2026-03-07T14:36:47,802.547,14.462679392000041,ROW,DROP,arm_wait,-69.8012535479505,-0.53,-2.98,9.34,9.818192297974205,47.75,8.0625,-88.1875,359.9375,-3.4375,17.6875,ARM_WAIT,9.832842925624307,-0.03243260601553288,False,0,False,False,-70.1764304023002,-69.3752139027149,30.388195166666666,130.94457599999998,1,5,2.67,,,,,0,0,1490,1490,,False,,
2026-03-07T14:36:48,802.705,14.62343260099999,EVENT,DROP,[DROP] ARM_WAIT alt=-69.48 acc_med=9.821018277144177 dalt_med=-0.028 baseline=-70.18 max_alt=-69.38,,,,,,,,,,,,,,,,,,,,,,,,,,,,,,,,,,,,
2026-03-07T14:36:48,802.705,14.62343260099999,ROW,DROP,arm_wait,-69.47827952877135,-0.6,-3.0,9.31,9.799801018388077,49.0,8.5,-90.6875,359.9375,-3.4375,17.6875,ARM_WAIT,9.821018277144177,-0.02843300213858413,False,0,False,False,-70.1764304023002,-69.3752139027149,30.388195166666666,130.94457599999998,1,5,2.67,,,,,0,0,1490,1490,,False,,
2026-03-07T14:36:48,802.858,14.781399692000036,EVENT,DROP,[DROP] ARM_WAIT alt=-69.06 acc_med=9.821018277144177 dalt_med=0.004 baseline=-70.18 max_alt=-69.06,,,,,,,,,,,,,,,,,,,,,,,,,,,,,,,,,,,,
2026-03-07T14:36:48,802.859,14.781399692000036,ROW,DROP,arm_wait,-69.0584410467824,-0.6,-3.02,9.27,9.76797317768635,48.5625,7.375,-88.1875,359.9375,-3.4375,17.6875,ARM_WAIT,9.821018277144177,0.004000022017677907,False,0,False,False,-70.1764304023002,-69.0584410467824,30.388195166666666,130.94457599999998,0,2,99.99,,,,,0,0,1490,1490,,False,,
2026-03-07T14:36:48,803.018,14.934326043000056,EVENT,DROP,[DROP] ARM_WAIT alt=-69.54 acc_med=9.836366198957826 dalt_med=-0.028 baseline=-70.18 max_alt=-69.06,,,,,,,,,,,,,,,,,,,,,,,,,,,,,,,,,,,,
2026-03-07T14:36:48,803.018,14.934326043000056,ROW,DROP,arm_wait,-69.54334868106501,-0.59,-2.96,9.38,9.853633847469673,48.5625,8.875,-89.375,359.9375,-3.4375,17.6875,ARM_WAIT,9.836366198957826,-0.02843300213858413,False,0,False,False,-70.1764304023002,-69.0584410467824,30.388195166666666,130.94457599999998,0,2,99.99,,,,,0,0,1490,1490,,False,,
2026-03-07T14:36:48,803.174,15.093911212999956,EVENT,DROP,[DROP] ARM_WAIT alt=-69.64 acc_med=9.828097476114083 dalt_med=-0.095 baseline=-70.18 max_alt=-69.06,,,,,,,,,,,,,,,,,,,,,,,,,,,,,,,,,,,,
2026-03-07T14:36:48,803.177,15.093911212999956,ROW,DROP,arm_wait,-69.6382040300714,-0.59,-2.97,9.35,9.828097476114083,47.75,7.0,-88.1875,359.9375,-3.4375,17.6875,ARM_WAIT,9.828097476114083,-0.09485534900639436,False,0,False,False,-70.1764304023002,-69.0584410467824,30.388195166666666,130.94457599999998,0,2,99.99,,,,,0,0,1490,1490,,False,,
2026-03-07T14:36:48,803.329,15.253313993000006,EVENT,DROP,[DROP] ARM_WAIT alt=-69.78 acc_med=9.828097476114083 dalt_med=-0.095 baseline=-70.18 max_alt=-69.06,,,,,,,,,,,,,,,,,,,,,,,,,,,,,,,,,,,,
2026-03-07T14:36:48,803.329,15.253313993000006,ROW,DROP,arm_wait,-69.77836657475855,-0.56,-2.98,9.370000000000001,9.848395808455304,48.1875,8.0625,-89.375,359.9375,-3.4375,17.6875,ARM_WAIT,9.828097476114083,-0.09485534900639436,False,0,False,False,-70.1764304023002,-69.0584410467824,30.388195166666666,130.94457599999998,0,2,99.99,,,,,0,0,1490,1490,,False,,
2026-03-07T14:36:48,803.489,15.406188938000014,EVENT,DROP,[DROP] ARM_WAIT alt=-69.48 acc_med=9.828097476114083 dalt_med=-0.095 baseline=-70.18 max_alt=-69.06,,,,,,,,,,,,,,,,,,,,,,,,,,,,,,,,,,,,
2026-03-07T14:36:48,803.490,15.406188938000014,ROW,DROP,arm_wait,-69.48181703735351,-0.58,-2.96,9.370000000000001,9.843520711615332,47.5,8.5,-90.1875,359.9375,-3.4375,17.6875,ARM_WAIT,9.828097476114083,-0.09485534900639436,False,0,False,False,-70.1764304023002,-69.0584410467824,30.388195166666666,130.94457599999998,0,2,99.99,,,,,0,0,1490,1490,,False,,
2026-03-07T14:36:49,803.650,15.565968216999977,EVENT,DROP,[DROP] ARM_WAIT alt=-69.42 acc_med=9.829201391771356 dalt_med=0.059 baseline=-70.18 max_alt=-69.06,,,,,,,,,,,,,,,,,,,,,,,,,,,,,,,,,,,,
2026-03-07T14:36:49,803.651,15.565968216999977,ROW,DROP,arm_wait,-69.42294007548693,-0.6,-2.94,9.36,9.829201391771356,48.1875,8.0625,-87.6875,359.9375,-3.4375,17.6875,ARM_WAIT,9.829201391771356,0.05887696186657365,False,0,False,False,-70.1764304023002,-69.0584410467824,30.388195166666666,130.94457599999998,0,2,99.99,,,,,0,0,1490,1490,,False,,
2026-03-07T14:36:49,803.817,15.726286909999999,EVENT,DROP,[DROP] ARM_WAIT alt=-69.64 acc_med=9.83400223713621 dalt_med=-0.095 baseline=-70.18 max_alt=-69.06,,,,,,,,,,,,,,,,,,,,,,,,,,,,,,,,,,,,
2026-03-07T14:36:49,803.818,15.726286909999999,ROW,DROP,arm_wait,-69.63619737519727,-0.58,-2.96,9.36,9.83400223713621,48.5625,8.5,-91.0625,359.9375,-3.4375,17.6875,ARM_WAIT,9.83400223713621,-0.09485534900639436,False,0,False,False,-70.1764304023002,-69.0584410467824,30.388195166666666,130.94457599999998,1,3,7.75,,,,,0,0,1490,1490,,False,,
2026-03-07T14:36:49,803.974,15.899419766000051,EVENT,DROP,[DROP] ARM_WAIT alt=-69.62 acc_med=9.83400223713621 dalt_med=-0.095 baseline=-70.18 max_alt=-69.06,,,,,,,,,,,,,,,,,,,,,,,,,,,,,,,,,,,,
2026-03-07T14:36:49,803.975,15.899419766000051,ROW,DROP,arm_wait,-69.61997262913299,-0.56,-2.98,9.38,9.857910529113155,49.25,8.0625,-89.0,359.9375,-3.4375,17.6875,ARM_WAIT,9.83400223713621,-0.09485534900639436,False,0,False,False,-70.1764304023002,-69.0584410467824,30.388195166666666,130.94457599999998,1,3,7.75,,,,,0,0,1490,1490,,False,,
2026-03-07T14:36:49,804.142,16.05070944600004,EVENT,DROP,[DROP] ARM_WAIT alt=-69.71 acc_med=9.83400223713621 dalt_med=-0.085 baseline=-70.18 max_alt=-69.06,,,,,,,,,,,,,,,,,,,,,,,,,,,,,,,,,,,,
2026-03-07T14:36:49,804.144,16.05070944600004,ROW,DROP,arm_wait,-69.70527518472481,-0.5700000000000001,-2.95,9.4,9.86850545928815,47.75,8.0625,-86.875,359.9375,-3.4375,17.6875,ARM_WAIT,9.83400223713621,-0.08530255559182365,False,0,False,False,-70.1764304023002,-69.0584410467824,30.388195166666666,130.94457599999998,1,3,7.75,,,,,0,0,1490,1490,,False,,
2026-03-07T14:36:49,804.300,16.220047671999964,EVENT,DROP,[DROP] ARM_WAIT alt=-69.45 acc_med=9.83400223713621 dalt_med=0.016 baseline=-70.18 max_alt=-69.06,,,,,,,,,,,,,,,,,,,,,,,,,,,,,,,,,,,,
2026-03-07T14:36:49,804.301,16.220047671999964,ROW,DROP,arm_wait,-69.45338279598087,-0.5700000000000001,-3.0100000000000002,9.290000000000001,9.7820805557918,47.75,7.375,-90.1875,359.9375,-3.4375,17.6875,ARM_WAIT,9.83400223713621,0.016224746064281703,False,0,False,False,-70.1764304023002,-69.0584410467824,30.388195166666666,130.94457599999998,1,3,7.75,,,,,0,0,1490,1490,,False,,
2026-03-07T14:36:49,804.453,16.376768395,EVENT,DROP,[DROP] ARM_WAIT alt=-69.62 acc_med=9.840635142103379 dalt_med=0.016 baseline=-70.18 max_alt=-69.06,,,,,,,,,,,,,,,,,,,,,,,,,,,,,,,,,,,,
2026-03-07T14:36:49,804.454,16.376768395,ROW,DROP,arm_wait,-69.62398712407594,-0.59,-2.98,9.36,9.840635142103379,49.25,8.5,-88.1875,359.9375,-3.4375,17.6875,ARM_WAIT,9.840635142103379,0.016224746064281703,False,0,False,False,-70.1764304023002,-69.0584410467824,30.388195166666666,130.94457599999998,1,3,7.75,,,,,0,0,1490,1490,,False,,
2026-03-07T14:36:49,804.608,16.52997098900005,EVENT,DROP,[DROP] ARM_WAIT alt=-69.80 acc_med=9.840635142103379 dalt_med=-0.085 baseline=-70.18 max_alt=-69.06,,,,,,,,,,,,,,,,,,,,,,,,,,,,,,,,,,,,
2026-03-07T14:36:49,804.609,16.52997098900005,ROW,DROP,arm_wait,-69.79925006564034,-0.56,-2.96,9.31,9.785259322061934,50.0625,8.5,-89.875,359.9375,-3.4375,17.6875,ARM_WAIT,9.840635142103379,-0.08530255559182365,False,0,False,False,-70.1764304023002,-69.0584410467824,30.388195166666666,130.94457599999998,1,3,7.75,,,,,0,0,1490,1490,,False,,
2026-03-07T14:36:50,804.769,16.685112747000062,EVENT,DROP,[DROP] ARM_WAIT alt=-69.42 acc_med=9.83400223713621 dalt_med=-0.085 baseline=-70.18 max_alt=-69.06,,,,,,,,,,,,,,,,,,,,,,,,,,,,,,,,,,,,
2026-03-07T14:36:50,804.773,16.685112747000062,ROW,DROP,arm_wait,-69.41940803159453,-0.56,-2.95,9.35,9.820315677207123,48.5625,8.5,-88.5625,359.9375,-3.4375,17.6875,ARM_WAIT,9.83400223713621,-0.08530255559182365,False,0,False,False,-70.1764304023002,-69.0584410467824,30.388195166666666,130.94457599999998,1,3,7.75,,,,,0,0,1490,1490,,False,,
2026-03-07T14:36:50,804.931,16.848511040000062,EVENT,DROP,[DROP] ARM_WAIT alt=-69.64 acc_med=9.83400223713621 dalt_med=-0.085 baseline=-70.18 max_alt=-69.06,,,,,,,,,,,,,,,,,,,,,,,,,,,,,,,,,,,,
2026-03-07T14:36:50,804.932,16.848511040000062,ROW,DROP,arm_wait,-69.64487137016042,-0.58,-2.95,9.35,9.82147646741568,48.5625,7.6875,-91.0625,359.9375,-3.4375,17.6875,ARM_WAIT,9.83400223713621,-0.08530255559182365,False,0,False,False,-70.1764304023002,-69.0584410467824,30.388195166666666,130.94457599999998,1,3,7.75,,,,,0,0,1490,1490,,False,,
2026-03-07T14:36:50,805.084,17.00791434300004,EVENT,DROP,[DROP] ARM_WAIT alt=-69.70 acc_med=9.829201391771356 dalt_med=-0.085 baseline=-70.18 max_alt=-69.06,,,,,,,,,,,,,,,,,,,,,,,,,,,,,,,,,,,,
2026-03-07T14:36:50,805.084,17.00791434300004,ROW,DROP,arm_wait,-69.70173787796838,-0.54,-2.94,9.33,9.797147544055871,48.5625,7.6875,-90.6875,359.9375,-3.4375,17.6875,ARM_WAIT,9.829201391771356,-0.08530255559182365,False,0,False,False,-70.1764304023002,-69.0584410467824,30.388195166666666,130.94457599999998,1,3,7.75,,,,,0,0,1490,1490,,False,,
2026-03-07T14:36:50,805.242,17.160467842999992,EVENT,DROP,[DROP] ARM_WAIT alt=-69.56 acc_med=9.829201391771356 dalt_med=-0.057 baseline=-70.18 max_alt=-69.06,,,,,,,,,,,,,,,,,,,,,,,,,,,,,,,,,,,,
2026-03-07T14:36:50,805.243,17.160467842999992,ROW,DROP,arm_wait,-69.56357912297601,-0.6,-2.98,9.370000000000001,9.85075124038771,48.5625,8.875,-89.0,359.9375,-3.4375,17.6875,ARM_WAIT,9.829201391771356,-0.05686650780796754,False,0,False,False,-70.1764304023002,-69.0584410467824,30.388195166666666,130.94457599999998,1,3,7.75,,,,,0,0,1490,1490,,False,,
2026-03-07T14:36:50,805.404,17.319001067000045,EVENT,DROP,[DROP] ARM_WAIT alt=-69.68 acc_med=9.83400223713621 dalt_med=-0.112 baseline=-70.18 max_alt=-69.06,,,,,,,,,,,,,,,,,,,,,,,,,,,,,,,,,,,,
2026-03-07T14:36:50,805.405,17.319001067000045,ROW,DROP,arm_wait,-69.67530824154682,-0.61,-2.98,9.38,9.860877242923168,50.75,7.6875,-89.875,359.9375,-3.4375,17.6875,ARM_WAIT,9.83400223713621,-0.11172911857080692,False,0,False,False,-70.1764304023002,-69.0584410467824,30.388195166666666,130.94457599999998,1,3,7.75,,,,,0,0,1490,1490,,False,,
2026-03-07T14:36:50,805.561,17.480440509999994,EVENT,DROP,[DROP] ARM_WAIT alt=-69.69 acc_med=9.82147646741568 dalt_med=-0.057 baseline=-70.18 max_alt=-69.06,,,,,,,,,,,,,,,,,,,,,,,,,,,,,,,,,,,,
2026-03-07T14:36:50,805.561,17.480440509999994,ROW,DROP,arm_wait,-69.68752127902286,-0.5700000000000001,-2.98,9.32,9.801413163416793,48.1875,7.0,-88.1875,359.9375,-3.4375,17.6875,ARM_WAIT,9.82147646741568,-0.05686650780796754,False,0,False,False,-70.1764304023002,-69.0584410467824,30.388195166666666,130.94457599999998,1,3,7.75,,,,,0,0,1490,1490,,False,,
2026-03-07T14:36:51,805.723,17.639415232000033,EVENT,DROP,[DROP] ARM_WAIT alt=-69.59 acc_med=9.82147646741568 dalt_med=-0.012 baseline=-70.18 max_alt=-69.06,,,,,,,,,,,,,,,,,,,,,,,,,,,,,,,,,,,,
2026-03-07T14:36:51,805.724,17.639415232000033,ROW,DROP,arm_wait,-69.58599933186147,-0.59,-2.98,9.35,9.831124045601296,48.5625,8.5,-90.1875,359.9375,-3.4375,17.6875,ARM_WAIT,9.82147646741568,-0.01221303747604452,False,0,False,False,-70.1764304023002,-69.0584410467824,30.388195166666666,130.94457599999998,1,3,7.75,,,,,0,0,1490,1490,,False,,
2026-03-07T14:36:51,805.880,17.799688356000047,EVENT,DROP,[DROP] ARM_WAIT alt=-69.40 acc_med=9.82147646741568 dalt_med=-0.012 baseline=-70.18 max_alt=-69.06,,,,,,,,,,,,,,,,,,,,,,,,,,,,,,,,,,,,
2026-03-07T14:36:51,805.881,17.799688356000047,ROW,DROP,arm_wait,-69.40318537971837,-0.59,-3.0,9.370000000000001,9.856216312561328,48.5625,8.0625,-87.0,359.9375,-3.4375,17.6875,ARM_WAIT,9.82147646741568,-0.01221303747604452,False,0,False,False,-70.1764304023002,-69.0584410467824,30.388195166666666,130.94457599999998,1,3,7.75,,,,,0,0,1490,1490,,False,,
2026-03-07T14:36:51,806.036,17.957759147000047,EVENT,DROP,[DROP] ARM_WAIT alt=-69.09 acc_med=9.831124045601296 dalt_med=0.102 baseline=-70.18 max_alt=-69.06,,,,,,,,,,,,,,,,,,,,,,,,,,,,,,,,,,,,
2026-03-07T14:36:51,806.037,17.957759147000047,ROW,DROP,arm_wait,-69.09442303824996,-0.58,-2.97,9.38,9.856048904099453,49.0,7.375,-89.875,359.9375,-3.4375,17.6875,ARM_WAIT,9.831124045601296,0.10152194716138752,False,0,False,False,-70.1764304023002,-69.0584410467824,30.388195166666666,130.94457599999998,1,3,7.75,,,,,0,0,1490,1490,,False,,
2026-03-07T14:36:51,806.198,18.112493106999977,EVENT,DROP,[DROP] ARM_WAIT alt=-69.66 acc_med=9.825080152344814 dalt_med=0.102 baseline=-70.18 max_alt=-69.06,,,,,,,,,,,,,,,,,,,,,,,,,,,,,,,,,,,,
