pc_time,mono_time,elapsed_sec,kind,phase,message,alt_m,acc_x,acc_y,acc_z,acc_norm,mag_x,mag_y,mag_z,euler_heading,euler_roll,euler_pitch,drop_subphase,drop_acc_med,drop_dalt_med,drop_cond,drop_consec,drop_confirmed,drop_armed,drop_baseline_alt,drop_max_alt,gps_lat,gps_lon,gps_fixq,gps_nsat,gps_hdop,gps_dist_m,gps_goal_bearing_deg,gps_heading_deg,gps_err_deg,servo_fwd_cmd,servo_turn_cmd,servo_us18,servo_us12,recovery_mode,recovery_busy,camera_red_ratio,camera_status
2026-03-07T16:10:31,460.181,,EVENT,,=== CanSat Integrated Program Start ===,,,,,,,,,,,,,,,,,,,,,,,,,,,,,,,,,,,,
2026-03-07T16:10:31,460.430,,EVENT,,[TWELITE] soft UART open RX=GPIO14 TX=GPIO15 38400bps,,,,,,,,,,,,,,,,,,,,,,,,,,,,,,,,,,,,
2026-03-07T16:10:32,461.334,0.0,EVENT,DROP,Phase: DROP,,,,,,,,,,,,,,,,,,,,,,,,,,,,,,,,,,,,
2026-03-07T16:10:32,461.337,0.0,EVENT,DROP,[TIMER] force_gps=900s force_done=1500s,,,,,,,,,,,,,,,,,,,,,,,,,,,,,,,,,,,,
2026-03-07T16:10:32,461.406,0.003385672999968392,ROW,DROP,warmup,-69.30040834491909,0.45,-0.35000000000000003,9.18,9.197684491218428,11.5625,17.875,-115.0625,0.3125,0.0,-0.0625,WARMUP,,,,0,False,False,-69.30040834491909,-69.30040834491909,,,0,0,,,,,,0,0,1490,1490,,False,,
2026-03-07T16:10:32,461.558,0.17274657899997692,ROW,DROP,warmup,-69.40853311532987,0.45,-0.5700000000000001,9.47,9.497805009579846,13.0625,18.6875,-115.375,0.875,3.625,3.125,WARMUP,,,,0,False,False,-69.30040834491909,-69.30040834491909,,,0,0,,,,,,0,0,1490,1490,,False,,
2026-03-07T16:10:32,461.708,0.3244775979999872,ROW,DROP,warmup,-69.25326549990274,0.4,-0.56,9.32,9.345373186770018,9.375,19.0625,-115.875,1.3125,3.625,3.1875,WARMUP,,,,0,False,False,-69.30040834491909,-69.25326549990274,,,0,0,,,,,,0,0,1490,1490,,False,,
2026-03-07T16:10:33,461.865,0.4751708839999651,ROW,DROP,warmup,-69.30926138766068,,,,,7.75,11.1875,-69.0625,1.5,3.625,3.1875,WARMUP,,,,0,False,False,-69.30040834491909,-69.25326549990274,,,0,0,,,,,,0,0,1490,1490,,False,,
2026-03-07T16:10:33,462.018,0.6315487099999473,ROW,DROP,warmup,-69.40707125918185,0.55,-0.61,9.3,9.336198369786281,8.5625,11.5625,-70.0625,1.625,3.5625,3.3125,WARMUP,9.345373186770018,,,0,False,False,-69.30040834491909,-69.25326549990274,,,1,11,0.91,,,,,0,0,1490,1490,,False,,
2026-03-07T16:10:33,462.168,0.7847626359999822,ROW,DROP,warmup,-69.34911314450349,0.42,-0.59,9.39,9.417887236530284,8.5625,11.5,-69.6875,1.5625,3.5625,3.5,WARMUP,9.381630211650151,,,0,False,False,-69.30040834491909,-69.25326549990274,,,1,11,0.91,,,,,0,0,1490,1490,,False,,
2026-03-07T16:10:33,462.318,0.9355094969999982,ROW,DROP,warmup,-68.97522214552701,0.59,-0.61,9.33,9.368516424706742,7.375,11.5,-69.25,1.5625,3.5,3.4375,WARMUP,9.368516424706742,,,0,False,False,-69.30040834491909,-68.97522214552701,,,1,11,0.91,,,,,0,0,1490,1490,,False,,
2026-03-07T16:10:33,462.478,1.0853432719999887,ROW,DROP,warmup,-69.0703423966914,0.45,-0.6,9.36,9.389999999999999,8.5,11.5,-69.25,1.625,3.375,3.4375,WARMUP,9.37925821235337,,,0,False,False,-69.30040834491909,-68.97522214552701,,,1,11,0.91,,,,,0,0,1490,1490,,False,,
2026-03-07T16:10:33,462.658,1.2720977749999633,ROW,DROP,warmup,-69.0309769228419,0.52,-0.6,9.39,9.423507839440683,7.75,10.1875,-69.0,1.6875,3.4375,3.4375,WARMUP,9.389999999999999,,,0,False,False,-69.30040834491909,-68.97522214552701,,,1,11,0.91,,,,,0,0,1490,1490,,False,,
2026-03-07T16:10:34,462.810,1.424967998999989,ROW,DROP,warmup,-69.47528000019966,0.45,-0.65,9.370000000000001,9.40329197674942,8.0625,11.0,-69.75,1.875,3.375,3.5,WARMUP,9.39664598837471,,,0,False,False,-69.30040834491909,-68.97522214552701,,,1,11,0.91,,,,,0,0,1490,1490,,False,,
2026-03-07T16:10:34,462.967,1.5771915179999496,ROW,DROP,warmup,-69.66820831363913,0.42,-0.56,9.450000000000001,9.47589045947662,8.875,11.375,-70.0625,1.8125,3.375,3.375,WARMUP,9.40329197674942,,,0,False,False,-69.30040834491909,-68.97522214552701,,,1,11,0.97,,,,,0,0,1490,1490,,False,,
2026-03-07T16:10:34,463.116,1.7337596799999915,EVENT,DROP,[DROP] ARM_WAIT alt=-69.41 acc_med=9.39664598837471 dalt_med=0.039 baseline=-69.30 max_alt=-68.98,,,,,,,,,,,,,,,,,,,,,,,,,,,,,,,,,,,,
2026-03-07T16:10:34,463.119,1.7337596799999915,ROW,DROP,arm_wait,-69.40558709669295,0.41000000000000003,-0.45,9.28,9.299946236403734,8.0625,11.0,-69.0,1.6875,3.125,3.125,ARM_WAIT,9.39664598837471,0.03936547384950018,False,0,False,False,-69.30040834491909,-68.97522214552701,,,1,11,0.97,,,,,0,0,1490,1490,,False,,
2026-03-07T16:10:34,463.270,1.886218514999996,EVENT,DROP,[DROP] ARM_WAIT alt=-69.21 acc_med=9.40329197674942 dalt_med=0.039 baseline=-69.30 max_alt=-68.98,,,,,,,,,,,,,,,,,,,,,,,,,,,,,,,,,,,,
2026-03-07T16:10:34,463.271,1.886218514999996,ROW,DROP,arm_wait,-69.21020684019575,0.45,-0.55,9.38,9.406880460599039,7.75,10.5625,-69.75,1.6875,3.125,3.1875,ARM_WAIT,9.40329197674942,0.03936547384950018,False,0,False,False,-69.30040834491909,-68.97522214552701,,,1,11,0.97,,,,,0,0,1490,1490,,False,,
2026-03-07T16:10:34,463.430,2.037736033999977,EVENT,DROP,[DROP] ARM_WAIT alt=-69.25 acc_med=9.40329197674942 dalt_med=-0.040 baseline=-69.30 max_alt=-68.98,,,,,,,,,,,,,,,,,,,,,,,,,,,,,,,,,,,,
2026-03-07T16:10:34,463.430,2.037736033999977,ROW,DROP,arm_wait,-69.25004493911366,0.47000000000000003,-0.48,9.47,9.493797975520652,8.875,10.5625,-68.5625,1.75,3.4375,3.0,ARM_WAIT,9.40329197674942,-0.03983809891791168,False,0,False,False,-69.30040834491909,-68.97522214552701,,,1,11,0.97,,,,,0,0,1490,1490,,False,,
2026-03-07T16:10:34,463.607,2.222281407999958,EVENT,DROP,[DROP] ARM_WAIT alt=-69.13 acc_med=9.40329197674942 dalt_med=0.039 baseline=-69.30 max_alt=-68.98,,,,,,,,,,,,,,,,,,,,,,,,,,,,,,,,,,,,
2026-03-07T16:10:34,463.608,2.222281407999958,ROW,DROP,arm_wait,-69.12681099643353,0.19,-0.78,9.27,9.304697738239538,10.0,9.875,-69.5,2.25,2.375,3.4375,ARM_WAIT,9.40329197674942,0.03936547384950018,False,0,False,False,-69.30040834491909,-68.97522214552701,,,1,11,0.97,,,,,0,0,1490,1490,,False,,
2026-03-07T16:10:35,463.760,2.374599979999971,EVENT,DROP,[DROP] ARM_WAIT alt=-69.27 acc_med=9.406880460599039 dalt_med=-0.040 baseline=-69.30 max_alt=-68.98,,,,,,,,,,,,,,,,,,,,,,,,,,,,,,,,,,,,
2026-03-07T16:10:35,463.760,2.374599979999971,ROW,DROP,arm_wait,-69.26643723892938,0.48,-0.49,9.43,9.454914066240898,8.6875,11.25,-69.0625,1.6875,2.8125,3.3125,ARM_WAIT,9.406880460599039,-0.03983809891791168,False,0,False,False,-69.30040834491909,-68.97522214552701,,,1,11,0.97,,,,,0,0,1490,1490,,False,,
2026-03-07T16:10:35,463.920,2.5273721840000007,EVENT,DROP,[DROP] ARM_WAIT alt=-69.29 acc_med=9.40329197674942 dalt_med=-0.028 baseline=-69.30 max_alt=-68.98,,,,,,,,,,,,,,,,,,,,,,,,,,,,,,,,,,,,
2026-03-07T16:10:35,463.920,2.5273721840000007,ROW,DROP,arm_wait,-69.29407751796695,0.33,-0.72,9.11,9.144364384690714,9.1875,10.875,-68.375,1.75,2.3125,3.4375,ARM_WAIT,9.40329197674942,-0.027640279037569826,False,0,False,False,-69.30040834491909,-68.97522214552701,,,1,11,0.97,,,,,0,0,1490,1490,,False,,
2026-03-07T16:10:35,464.070,2.687058952999962,EVENT,DROP,[DROP] ARM_WAIT alt=-69.18 acc_med=9.406880460599039 dalt_med=0.111 baseline=-69.30 max_alt=-68.98,,,,,,,,,,,,,,,,,,,,,,,,,,,,,,,,,,,,
2026-03-07T16:10:35,464.071,2.687058952999962,ROW,DROP,arm_wait,-69.18280340701868,0.4,-0.64,9.450000000000001,9.480089662023246,7.875,11.25,-76.25,1.625,2.5,3.875,ARM_WAIT,9.406880460599039,0.11127411094827266,False,0,False,False,-69.30040834491909,-68.97522214552701,,,1,10,0.97,,,,,0,0,1490,1490,,False,,
2026-03-07T16:10:35,464.221,2.8377820579999593,EVENT,DROP,[DROP] ARM_WAIT alt=-68.97 acc_med=9.423507839440683 dalt_med=0.111 baseline=-69.30 max_alt=-68.97,,,,,,,,,,,,,,,,,,,,,,,,,,,,,,,,,,,,
2026-03-07T16:10:35,464.221,2.8377820579999593,ROW,DROP,arm_wait,-68.97371600073662,0.37,-0.63,9.49,9.518082790142142,8.375,11.1875,-70.1875,1.375,2.75,4.25,ARM_WAIT,9.423507839440683,0.11127411094827266,False,0,False,False,-69.30040834491909,-68.97371600073662,,,1,10,0.97,,,,,0,0,1490,1490,,False,,
2026-03-07T16:10:35,464.370,2.9881547929999783,EVENT,DROP,[DROP] ARM_WAIT alt=-69.17 acc_med=9.406880460599039 dalt_med=-0.028 baseline=-69.30 max_alt=-68.97,,,,,,,,,,,,,,,,,,,,,,,,,,,,,,,,,,,,
2026-03-07T16:10:35,464.370,2.9881547929999783,ROW,DROP,arm_wait,-69.16641032610269,0.36,-0.62,9.35,9.377446347487146,8.0,11.75,-69.375,1.1875,2.875,4.25,ARM_WAIT,9.406880460599039,-0.027640279037569826,False,0,False,False,-69.30040834491909,-68.97371600073662,,,1,10,0.97,,,,,0,0,1490,1490,,False,,
2026-03-07T16:10:35,464.559,3.1611957549999943,EVENT,DROP,[DROP] ARM_WAIT alt=-69.35 acc_med=9.454914066240898 dalt_med=-0.028 baseline=-69.30 max_alt=-68.97,,,,,,,,,,,,,,,,,,,,,,,,,,,,,,,,,,,,
2026-03-07T16:10:35,464.559,3.1611957549999943,ROW,DROP,arm_wait,-69.34935381072125,0.53,-0.63,9.51,9.54556965298562,7.6875,12.0625,-69.375,0.875,3.3125,4.1875,ARM_WAIT,9.454914066240898,-0.027640279037569826,False,0,False,False,-69.30040834491909,-68.97371600073662,,,1,10,0.97,,,,,0,0,1490,1490,,False,,
2026-03-07T16:10:35,464.717,3.3268667209999876,EVENT,DROP,[DROP] ARM_WAIT alt=-69.43 acc_med=9.421836339058327 dalt_med=-0.082 baseline=-69.30 max_alt=-68.97,,,,,,,,,,,,,,,,,,,,,,,,,,,,,,,,,,,,
2026-03-07T16:10:35,464.717,3.3268667209999876,ROW,DROP,arm_wait,-69.43148792151857,0.42,-0.65,9.39,9.421836339058327,7.375,11.75,-69.6875,0.875,3.125,4.0625,ARM_WAIT,9.421836339058327,-0.08213411079731259,False,0,False,False,-69.30040834491909,-68.97371600073662,,,1,10,0.97,,,,,0,0,1490,1490,,False,,
2026-03-07T16:10:36,464.868,3.483990265999978,EVENT,DROP,[DROP] ARM_WAIT alt=-69.50 acc_med=9.421836339058327 dalt_med=-0.070 baseline=-69.30 max_alt=-68.97,,,,,,,,,,,,,,,,,,,,,,,,,,,,,,,,,,,,
2026-03-07T16:10:36,464.869,3.483990265999978,ROW,DROP,arm_wait,-69.50141887675123,0.5,-0.6900000000000001,9.370000000000001,9.408666217907829,8.375,12.0625,-68.875,0.9375,3.0,3.9375,ARM_WAIT,9.421836339058327,-0.0699309552326639,False,0,False,False,-69.30040834491909,-68.97371600073662,,,1,10,0.97,,,,,0,0,1490,1490,,False,,
2026-03-07T16:10:36,465.020,3.6355221549999897,EVENT,DROP,[DROP] ARM_WAIT alt=-69.26 acc_med=9.446539048773365 dalt_med=-0.070 baseline=-69.30 max_alt=-68.97,,,,,,,,,,,,,,,,,,,,,,,,,,,,,,,,,,,,
2026-03-07T16:10:36,465.021,3.6355221549999897,ROW,DROP,arm_wait,-69.26421949133221,0.43,-0.71,9.41,9.446539048773365,8.0,12.0625,-69.25,1.0,3.0,4.0,ARM_WAIT,9.446539048773365,-0.0699309552326639,False,0,False,False,-69.30040834491909,-68.97371600073662,,,1,10,0.97,,,,,0,0,1490,1490,,False,,
2026-03-07T16:10:36,465.178,3.7876147289999835,EVENT,DROP,[DROP] ARM_WAIT alt=-69.45 acc_med=9.446539048773365 dalt_med=-0.082 baseline=-69.30 max_alt=-68.97,,,,,,,,,,,,,,,,,,,,,,,,,,,,,,,,,,,,
2026-03-07T16:10:36,465.179,3.7876147289999835,ROW,DROP,arm_wait,-69.44566292685087,0.47000000000000003,-0.62,9.44,9.472006123308832,7.25,11.25,-69.6875,1.0625,3.125,3.8125,ARM_WAIT,9.446539048773365,-0.08213411079731259,False,0,False,False,-69.30040834491909,-68.97371600073662,,,1,10,0.97,,,,,0,0,1490,1490,,False,,
2026-03-07T16:10:36,465.329,3.9456857699999546,EVENT,DROP,[DROP] ARM_WAIT alt=-69.26 acc_med=9.446539048773365 dalt_med=-0.082 baseline=-69.30 max_alt=-68.97,,,,,,,,,,,,,,,,,,,,,,,,,,,,,,,,,,,,
2026-03-07T16:10:36,465.330,3.9456857699999546,ROW,DROP,arm_wait,-69.26398397847245,0.49,-0.7000000000000001,9.3,9.339170198684677,7.6875,12.1875,-68.875,1.25,3.0,3.8125,ARM_WAIT,9.446539048773365,-0.08213411079731259,False,0,False,False,-69.30040834491909,-68.97371600073662,,,1,10,0.97,,,,,0,0,1490,1490,,False,,
2026-03-07T16:10:36,465.480,4.096586399999978,EVENT,DROP,[DROP] ARM_WAIT alt=-69.43 acc_med=9.434251427643849 dalt_med=-0.082 baseline=-69.30 max_alt=-68.97,,,,,,,,,,,,,,,,,,,,,,,,,,,,,,,,,,,,
2026-03-07T16:10:36,465.480,4.096586399999978,ROW,DROP,arm_wait,-69.43148792151857,0.33,-0.59,9.41,9.434251427643849,8.0625,11.0,-68.0625,1.3125,3.25,3.875,ARM_WAIT,9.434251427643849,-0.08213411079731259,False,0,False,False,-69.30040834491909,-68.97371600073662,,,1,10,0.97,,,,,0,0,1490,1490,,False,,
2026-03-07T16:10:36,465.658,4.272000434999995,EVENT,DROP,[DROP] ARM_WAIT alt=-69.38 acc_med=9.434251427643849 dalt_med=-0.070 baseline=-69.30 max_alt=-68.97,,,,,,,,,,,,,,,,,,,,,,,,,,,,,,,,,,,,
2026-03-07T16:10:36,465.661,4.272000434999995,ROW,DROP,arm_wait,-69.37549564730163,0.51,-0.62,9.25,9.284772479711068,8.375,11.0,-69.1875,1.3125,3.3125,3.6875,ARM_WAIT,9.434251427643849,-0.0699309552326639,False,0,False,False,-69.30040834491909,-68.97371600073662,,,1,10,0.97,,,,,0,0,1490,1490,,False,,
2026-03-07T16:10:37,465.828,4.427709150999988,EVENT,DROP,[DROP] ARM_WAIT alt=-69.08 acc_med=9.421836339058327 dalt_med=0.056 baseline=-69.30 max_alt=-68.97,,,,,,,,,,,,,,,,,,,,,,,,,,,,,,,,,,,,
2026-03-07T16:10:37,465.828,4.427709150999988,ROW,DROP,arm_wait,-69.08499396228059,0.52,-0.51,9.35,9.378326076651419,8.0,11.0,-69.6875,1.5625,3.8125,3.625,ARM_WAIT,9.421836339058327,0.055992274216933424,False,0,False,False,-69.30040834491909,-68.97371600073662,,,1,10,0.97,,,,,0,0,1490,1490,,False,,
2026-03-07T16:10:37,465.987,4.595557895999946,EVENT,DROP,[DROP] ARM_WAIT alt=-69.52 acc_med=9.421836339058327 dalt_med=0.056 baseline=-69.30 max_alt=-68.97,,,,,,,,,,,,,,,,,,,,,,,,,,,,,,,,,,,,
2026-03-07T16:10:37,465.988,4.595557895999946,ROW,DROP,arm_wait,-69.51535781936086,0.49,-0.79,9.39,9.435904832076254,7.1875,10.0,-68.375,2.1875,3.9375,3.75,ARM_WAIT,9.421836339058327,0.055992274216933424,False,0,False,False,-69.30040834491909,-68.97371600073662,,,1,10,0.97,,,,,0,0,1490,1490,,False,,
2026-03-07T16:10:37,466.148,4.755364033999967,EVENT,DROP,[DROP] ARM_WAIT alt=-69.31 acc_med=9.421836339058327 dalt_med=0.056 baseline=-69.30 max_alt=-68.97,,,,,,,,,,,,,,,,,,,,,,,,,,,,,,,,,,,,
2026-03-07T16:10:37,466.149,4.755364033999967,ROW,DROP,arm_wait,-69.30627179589615,0.32,-0.61,9.34,9.365367051002325,5.875,10.6875,-68.6875,2.375,3.75,3.75,ARM_WAIT,9.421836339058327,0.055992274216933424,False,0,False,False,-69.30040834491909,-68.97371600073662,,,1,10,0.97,,,,,0,0,1490,1490,,False,,
2026-03-07T16:10:37,466.306,4.91632836499997,EVENT,DROP,[DROP] ARM_WAIT alt=-69.15 acc_med=9.421836339058327 dalt_med=0.152 baseline=-69.30 max_alt=-68.97,,,,,,,,,,,,,,,,,,,,,,,,,,,,,,,,,,,,
2026-03-07T16:10:37,466.307,4.91632836499997,ROW,DROP,arm_wait,-69.15421345707908,0.5,-0.64,9.39,9.425057029005183,6.5625,10.375,-68.375,2.3125,3.75,3.75,ARM_WAIT,9.421836339058327,0.15205833881707065,False,0,False,False,-69.30040834491909,-68.97371600073662,,,1,10,0.97,,,,,0,0,1490,1490,,False,,
2026-03-07T16:10:37,466.457,5.073639573999969,EVENT,DROP,[DROP] ARM_WAIT alt=-69.11 acc_med=9.408666217907829 dalt_med=0.056 baseline=-69.30 max_alt=-68.97,,,,,,,,,,,,,,,,,,,,,,,,,,,,,,,,,,,,
2026-03-07T16:10:37,466.459,5.073639573999969,ROW,DROP,arm_wait,-69.11065355849506,0.58,-0.6,9.33,9.367246126797353,7.375,11.0625,-69.5625,2.125,3.8125,3.75,ARM_WAIT,9.408666217907829,0.055992274216933424,False,0,False,False,-69.30040834491909,-68.97371600073662,,,1,10,0.97,,,,,0,0,1490,1490,,False,,
2026-03-07T16:10:37,466.642,5.250943965999966,EVENT,DROP,[DROP] ARM_WAIT alt=-69.27 acc_med=9.378326076651419 dalt_med=0.056 baseline=-69.30 max_alt=-68.97,,,,,,,,,,,,,,,,,,,,,,,,,,,,,,,,,,,,
2026-03-07T16:10:37,466.643,5.250943965999966,ROW,DROP,arm_wait,-69.26596175127038,0.55,-0.56,9.34,9.372923770094367,6.5625,10.375,-68.6875,2.0,3.875,3.75,ARM_WAIT,9.378326076651419,0.055992274216933424,False,0,False,False,-69.30040834491909,-68.97371600073662,,,1,10,0.97,,,,,0,0,1490,1490,,False,,
2026-03-07T16:10:38,466.793,5.409456336999995,EVENT,DROP,[DROP] ARM_WAIT alt=-69.15 acc_med=9.372923770094367 dalt_med=0.113 baseline=-69.30 max_alt=-68.97,,,,,,,,,,,,,,,,,,,,,,,,,,,,,,,,,,,,
2026-03-07T16:10:38,466.794,5.409456336999995,ROW,DROP,arm_wait,-69.15247116111466,0.5700000000000001,-0.64,9.32,9.359321556608684,7.375,10.6875,-69.1875,2.1875,4.0,3.75,ARM_WAIT,9.372923770094367,0.11349059015572038,False,0,False,False,-69.30040834491909,-68.97371600073662,,,1,10,0.97,,,,,0,0,1490,1490,,False,,
2026-03-07T16:10:38,466.945,5.560575563999976,EVENT,DROP,[DROP] ARM_WAIT alt=-69.26 acc_med=9.372923770094367 dalt_med=0.044 baseline=-69.30 max_alt=-68.97,,,,,,,,,,,,,,,,,,,,,,,,,,,,,,,,,,,,
2026-03-07T16:10:38,466.946,5.560575563999976,ROW,DROP,arm_wait,-69.26468782442431,0.54,-0.6,9.34,9.37481733155372,6.1875,10.6875,-68.6875,2.3125,4.0625,3.6875,ARM_WAIT,9.372923770094367,0.04355989858402154,False,0,False,False,-69.30040834491909,-68.97371600073662,,,1,10,0.97,,,,,0,0,1490,1490,,False,,
2026-03-07T16:10:38,467.095,5.712976158999993,EVENT,DROP,[DROP] ARM_WAIT alt=-69.25 acc_med=9.372923770094367 dalt_med=0.044 baseline=-69.30 max_alt=-68.97,,,,,,,,,,,,,,,,,,,,,,,,,,,,,,,,,,,,
2026-03-07T16:10:38,467.095,5.712976158999993,ROW,DROP,arm_wait,-69.25051484102093,0.5,-0.56,9.34,9.370122731320011,8.0,9.875,-67.1875,2.5,4.0,3.6875,ARM_WAIT,9.372923770094367,0.04355989858402154,False,0,False,False,-69.30040834491909,-68.97371600073662,,,1,10,0.97,,,,,0,0,1490,1490,,False,,
2026-03-07T16:10:38,467.255,5.862200409999957,EVENT,DROP,[DROP] ARM_WAIT alt=-69.30 acc_med=9.372923770094367 dalt_med=0.014 baseline=-69.30 max_alt=-68.97,,,,,,,,,,,,,,,,,,,,,,,,,,,,,,,,,,,,
2026-03-07T16:10:38,467.256,5.862200409999957,ROW,DROP,arm_wait,-69.30404940268468,0.5,-0.62,9.36,9.393827760822528,6.0,10.25,-69.75,2.5625,4.0,3.8125,ARM_WAIT,9.372923770094367,0.01417298340338391,False,0,False,False,-69.30040834491909,-68.97371600073662,,,1,10,0.97,,,,,0,0,1490,1490,,False,,
2026-03-07T16:10:38,467.409,6.023372943999959,EVENT,DROP,[DROP] ARM_WAIT alt=-69.36 acc_med=9.37481733155372 dalt_med=-0.054 baseline=-69.30 max_alt=-68.97,,,,,,,,,,,,,,,,,,,,,,,,,,,,,,,,,,,,
2026-03-07T16:10:38,467.409,6.023372943999959,ROW,DROP,arm_wait,-69.35980697194523,0.63,-0.61,9.41,9.450772455201745,8.0,9.75,-69.0625,2.5625,4.125,3.6875,ARM_WAIT,9.37481733155372,-0.05353456166375281,False,0,False,False,-69.30040834491909,-68.97371600073662,,,1,10,0.97,,,,,0,0,1490,1490,,False,,
2026-03-07T16:10:38,467.583,6.20030219399996,EVENT,DROP,[DROP] ARM_WAIT alt=-69.10 acc_med=9.37481733155372 dalt_med=-0.054 baseline=-69.30 max_alt=-68.97,,,,,,,,,,,,,,,,,,,,,,,,,,,,,,,,,,,,
2026-03-07T16:10:38,467.584,6.20030219399996,ROW,DROP,arm_wait,-69.09718173450909,0.6,-0.6,9.43,9.468099070035125,8.375,9.75,-67.5,2.5,4.25,3.6875,ARM_WAIT,9.37481733155372,-0.05353456166375281,False,0,False,False,-69.30040834491909,-68.97371600073662,,,1,10,0.97,,,,,0,0,1490,1490,,False,,
2026-03-07T16:10:38,467.733,6.3509101099999725,EVENT,DROP,[DROP] ARM_WAIT alt=-69.36 acc_med=9.37481733155372 dalt_med=-0.054 baseline=-69.30 max_alt=-68.97,,,,,,,,,,,,,,,,,,,,,,,,,,,,,,,,,,,,
2026-03-07T16:10:38,467.733,6.3509101099999725,ROW,DROP,arm_wait,-69.35980697194523,0.61,-0.5700000000000001,9.35,9.387198730185698,7.1875,10.5625,-68.25,2.375,4.25,3.625,ARM_WAIT,9.37481733155372,-0.05353456166375281,False,0,False,False,-69.30040834491909,-68.97371600073662,,,1,10,0.97,,,,,0,0,1490,1490,,False,,
2026-03-07T16:10:39,467.889,6.500417788999982,EVENT,DROP,[DROP] ARM_WAIT alt=-69.36 acc_med=9.387198730185698 dalt_med=-0.054 baseline=-69.30 max_alt=-68.97,,,,,,,,,,,,,,,,,,,,,,,,,,,,,,,,,,,,
2026-03-07T16:10:39,467.890,6.500417788999982,ROW,DROP,arm_wait,-69.36003969931649,0.62,-0.51,9.39,9.424255938799625,7.1875,10.875,-68.25,2.1875,4.1875,3.5625,ARM_WAIT,9.387198730185698,-0.05353456166375281,False,0,False,False,-69.30040834491909,-68.97371600073662,,,1,10,0.97,,,,,0,0,1490,1490,,False,,
2026-03-07T16:10:39,468.040,6.657633001999955,EVENT,DROP,[DROP] ARM_WAIT alt=-69.28 acc_med=9.37481733155372 dalt_med=-0.000 baseline=-69.30 max_alt=-68.97,,,,,,,,,,,,,,,,,,,,,,,,,,,,,,,,,,,,
2026-03-07T16:10:39,468.040,6.657633001999955,ROW,DROP,arm_wait,-69.27640255887715,0.5,-0.52,9.26,9.288056847371251,6.375,10.1875,-68.1875,2.1875,4.0,3.5625,ARM_WAIT,9.37481733155372,-0.0002327273712552369,False,0,False,False,-69.30040834491909,-68.97371600073662,,,1,11,0.91,,,,,0,0,1490,1490,,False,,
2026-03-07T16:10:39,468.193,6.807415514999946,EVENT,DROP,[DROP] ARM_WAIT alt=-69.11 acc_med=9.387198730185698 dalt_med=-0.000 baseline=-69.30 max_alt=-68.97,,,,,,,,,,,,,,,,,,,,,,,,,,,,,,,,,,,,
2026-03-07T16:10:39,468.194,6.807415514999946,ROW,DROP,arm_wait,-69.10912633968789,0.72,-0.49,9.450000000000001,9.490047418216625,6.75,9.75,-67.875,2.1875,4.3125,3.5,ARM_WAIT,9.387198730185698,-0.0002327273712552369,False,0,False,False,-69.30040834491909,-68.97371600073662,,,1,11,0.91,,,,,0,0,1490,1490,,False,,
2026-03-07T16:10:39,468.343,6.961025733999975,EVENT,DROP,[DROP] ARM_WAIT alt=-69.51 acc_med=9.387198730185698 dalt_med=-0.000 baseline=-69.30 max_alt=-68.97,,,,,,,,,,,,,,,,,,,,,,,,,,,,,,,,,,,,
2026-03-07T16:10:39,468.343,6.961025733999975,ROW,DROP,arm_wait,-69.51383802977642,0.4,-0.55,9.27,9.294912587001559,7.1875,10.875,-67.375,2.4375,4.0625,3.4375,ARM_WAIT,9.387198730185698,-0.0002327273712552369,False,0,False,False,-69.30040834491909,-68.97371600073662,,,1,11,0.91,,,,,0,0,1490,1490,,False,,
2026-03-07T16:10:39,468.525,7.134873142999993,EVENT,DROP,[DROP] ARM_WAIT alt=-69.43 acc_med=9.393827760822528 dalt_med=0.084 baseline=-69.30 max_alt=-68.97,,,,,,,,,,,,,,,,,,,,,,,,,,,,,,,,,,,,
2026-03-07T16:10:39,468.525,7.134873142999993,ROW,DROP,arm_wait,-69.42973682279622,0.53,-0.74,9.39,9.43401293193941,7.5,10.6875,-68.0625,2.375,3.9375,3.9375,ARM_WAIT,9.393827760822528,0.08363714043933612,False,0,False,False,-69.30040834491909,-68.97371600073662,,,1,11,0.91,,,,,0,0,1490,1490,,False,,
2026-03-07T16:10:39,468.681,7.292175284999985,EVENT,DROP,[DROP] ARM_WAIT alt=-69.00 acc_med=9.424255938799625 dalt_med=0.084 baseline=-69.30 max_alt=-68.97,,,,,,,,,,,,,,,,,,,,,,,,,,,,,,,,,,,,
2026-03-07T16:10:39,468.681,7.292175284999985,ROW,DROP,arm_wait,-68.99960499062456,0.61,-0.5,9.41,9.442997405485189,6.75,10.1875,-68.875,1.875,4.0625,4.0,ARM_WAIT,9.424255938799625,0.08363714043933612,False,0,False,False,-69.30040834491909,-68.97371600073662,,,1,11,0.91,,,,,0,0,1490,1490,,False,,
2026-03-07T16:10:40,468.832,7.448091882999961,EVENT,DROP,[DROP] ARM_WAIT alt=-69.50 acc_med=9.424255938799625 dalt_med=0.084 baseline=-69.30 max_alt=-68.97,,,,,,,,,,,,,,,,,,,,,,,,,,,,,,,,,,,,
2026-03-07T16:10:40,468.832,7.448091882999961,ROW,DROP,arm_wait,-69.49966645880869,0.64,-0.5700000000000001,9.31,9.349363614706618,6.75,10.1875,-68.0625,1.75,3.875,3.9375,ARM_WAIT,9.424255938799625,0.08363714043933612,False,0,False,False,-69.30040834491909,-68.97371600073662,,,1,11,0.91,,,,,0,0,1490,1490,,False,,
2026-03-07T16:10:40,468.982,7.599383451999984,EVENT,DROP,[DROP] ARM_WAIT alt=-69.00 acc_med=9.424255938799625 dalt_med=0.084 baseline=-69.30 max_alt=-68.97,,,,,,,,,,,,,,,,,,,,,,,,,,,,,,,,,,,,
2026-03-07T16:10:40,468.983,7.599383451999984,ROW,DROP,arm_wait,-68.99913916185874,0.5700000000000001,-0.67,9.370000000000001,9.411200773546382,7.1875,10.875,-68.875,1.6875,3.9375,3.875,ARM_WAIT,9.424255938799625,0.08410120698020762,False,0,False,False,-69.30040834491909,-68.97371600073662,,,1,11,0.91,,,,,0,0,1490,1490,,False,,
2026-03-07T16:10:40,469.140,7.749842873999967,EVENT,DROP,[DROP] ARM_WAIT alt=-69.16 acc_med=9.411200773546382 dalt_med=0.084 baseline=-69.30 max_alt=-68.97,,,,,,,,,,,,,,,,,,,,,,,,,,,,,,,,,,,,
2026-03-07T16:10:40,469.140,7.749842873999967,ROW,DROP,arm_wait,-69.1648853665744,0.55,-0.6,9.290000000000001,9.325588453282721,5.6875,11.6875,-68.0625,1.8125,3.75,3.8125,ARM_WAIT,9.411200773546382,0.08410120698020762,False,0,False,False,-69.30040834491909,-68.97371600073662,,,1,11,0.91,,,,,0,0,1490,1490,,False,,
2026-03-07T16:10:40,469.293,7.907472283999994,EVENT,DROP,[DROP] ARM_WAIT alt=-69.43 acc_med=9.406896406360604 dalt_med=-0.166 baseline=-69.30 max_alt=-68.97,,,,,,,,,,,,,,,,,,,,,,,,,,,,,,,,,,,,
2026-03-07T16:10:40,469.297,7.907472283999994,ROW,DROP,arm_wait,-69.42973682279622,0.48,-0.68,9.370000000000001,9.406896406360604,6.6875,10.875,-68.75,2.0625,3.8125,3.875,ARM_WAIT,9.406896406360604,-0.16574620471565993,False,0,False,False,-69.30040834491909,-68.97371600073662,,,1,11,0.91,,,,,0,0,1490,1490,,False,,
2026-03-07T16:10:40,469.445,8.063876469999968,EVENT,DROP,[DROP] ARM_WAIT alt=-69.28 acc_med=9.411200773546382 dalt_med=0.084 baseline=-69.30 max_alt=-68.97,,,,,,,,,,,,,,,,,,,,,,,,,,,,,,,,,,,,
2026-03-07T16:10:40,469.445,8.063876469999968,ROW,DROP,arm_wait,-69.2766337097555,0.44,-0.54,9.41,9.435745863470466,5.875,11.25,-68.375,2.25,3.875,3.6875,ARM_WAIT,9.411200773546382,0.08410120698020762,False,0,False,False,-69.30040834491909,-68.97371600073662,,,1,11,0.91,,,,,0,0,1490,1490,,False,,
2026-03-07T16:10:40,469.622,8.23665211499997,EVENT,DROP,[DROP] ARM_WAIT alt=-69.28 acc_med=9.406896406360604 dalt_med=0.000 baseline=-69.30 max_alt=-68.97,,,,,,,,,,,,,,,,,,,,,,,,,,,,,,,,,,,,
2026-03-07T16:10:40,469.622,8.23665211499997,ROW,DROP,arm_wait,-69.2761705103743,0.52,-0.49,9.31,9.337376505207445,7.375,10.0625,-68.6875,2.4375,3.875,3.5,ARM_WAIT,9.406896406360604,0.00046319938120120696,False,0,False,False,-69.30040834491909,-68.97371600073662,,,1,11,0.91,,,,,0,0,1490,1490,,False,,
2026-03-07T16:10:41,469.781,8.389185470999962,EVENT,DROP,[DROP] ARM_WAIT alt=-68.93 acc_med=9.411200773546382 dalt_med=0.000 baseline=-69.30 max_alt=-68.93,,,,,,,,,,,,,,,,,,,,,,,,,,,,,,,,,,,,
2026-03-07T16:10:41,469.782,8.389185470999962,ROW,DROP,arm_wait,-68.92967487812065,0.51,-0.48,9.4,9.426054317687758,7.25,10.0,-67.6875,2.6875,4.0,3.5,ARM_WAIT,9.411200773546382,0.00046319938120120696,False,0,False,False,-69.30040834491909,-68.92967487812065,,,1,11,0.91,,,,,0,0,1490,1490,,False,,
2026-03-07T16:10:41,469.934,8.548456025999997,EVENT,DROP,[DROP] ARM_WAIT alt=-69.33 acc_med=9.406896406360604 dalt_med=0.000 baseline=-69.30 max_alt=-68.93,,,,,,,,,,,,,,,,,,,,,,,,,,,,,,,,,,,,
2026-03-07T16:10:41,469.934,8.548456025999997,ROW,DROP,arm_wait,-69.33216072429339,0.59,-0.65,9.35,9.391118144289315,7.0,9.875,-67.6875,2.875,3.9375,3.5625,ARM_WAIT,9.406896406360604,0.00046319938120120696,False,0,False,False,-69.30040834491909,-68.92967487812065,,,1,11,0.91,,,,,0,0,1490,1490,,False,,
2026-03-07T16:10:41,470.085,8.70114409599995,EVENT,DROP,[DROP] ARM_WAIT alt=-69.26 acc_med=9.406896406360604 dalt_med=0.000 baseline=-69.30 max_alt=-68.93,,,,,,,,,,,,,,,,,,,,,,,,,,,,,,,,,,,,
2026-03-07T16:10:41,470.085,8.70114409599995,ROW,DROP,arm_wait,-69.26269401038796,0.54,-0.56,9.370000000000001,9.402239095024122,7.0,10.25,-67.75,2.9375,4.0625,3.625,ARM_WAIT,9.406896406360604,0.00046319938120120696,False,0,False,False,-69.30040834491909,-68.92967487812065,,,1,11,0.91,,,,,0,0,1490,1490,,False,,
2026-03-07T16:10:41,470.243,8.852167405999978,EVENT,DROP,[DROP] ARM_WAIT alt=-69.35 acc_med=9.403137774168792 dalt_med=0.000 baseline=-69.30 max_alt=-68.93,,,,,,,,,,,,,,,,,,,,,,,,,,,,,,,,,,,,
2026-03-07T16:10:41,470.243,8.852167405999978,ROW,DROP,arm_wait,-69.34656275636478,0.5,-0.61,9.370000000000001,9.403137774168792,5.5,10.0,-69.25,3.0625,4.125,3.75,ARM_WAIT,9.403137774168792,0.00046319938120120696,False,0,False,False,-69.30040834491909,-68.92967487812065,,,1,11,0.91,,,,,0,0,1490,1490,,False,,
2026-03-07T16:10:41,470.393,9.010182730999986,EVENT,DROP,[DROP] ARM_WAIT alt=-69.33 acc_med=9.403137774168792 dalt_med=0.014 baseline=-69.30 max_alt=-68.93,,,,,,,,,,,,,,,,,,,,,,,,,,,,,,,,,,,,
2026-03-07T16:10:41,470.394,9.010182730999986,ROW,DROP,arm_wait,-69.33262303358016,0.73,-0.56,9.43,9.474777042231654,7.0,9.1875,-68.875,3.125,4.25,3.625,ARM_WAIT,9.403137774168792,0.013939722784613195,False,0,False,False,-69.30040834491909,-68.92967487812065,,,1,11,0.91,,,,,0,0,1490,1490,,False,,
2026-03-07T16:10:41,470.568,9.184545448999984,EVENT,DROP,[DROP] ARM_WAIT alt=-69.32 acc_med=9.403137774168792 dalt_med=0.014 baseline=-69.30 max_alt=-68.93,,,,,,,,,,,,,,,,,,,,,,,,,,,,,,,,,,,,
2026-03-07T16:10:41,470.570,9.184545448999984,ROW,DROP,arm_wait,-69.31845270017313,0.47000000000000003,-0.63,9.25,9.283334530221348,6.375,9.75,-68.25,3.4375,4.0625,3.625,ARM_WAIT,9.403137774168792,0.013939722784613195,False,0,False,False,-69.30040834491909,-68.92967487812065,,,1,11,0.91,,,,,0,0,1490,1490,,False,,
2026-03-07T16:10:41,470.720,9.336706897999989,EVENT,DROP,[DROP] ARM_WAIT alt=-69.41 acc_med=9.402239095024122 dalt_med=0.014 baseline=-69.30 max_alt=-68.93,,,,,,,,,,,,,,,,,,,,,,,,,,,,,,,,,,,,
2026-03-07T16:10:41,470.720,9.336706897999989,ROW,DROP,arm_wait,-69.4140316237548,0.54,-0.6,9.290000000000001,9.325004021446855,6.375,9.375,-68.25,3.625,4.1875,3.6875,ARM_WAIT,9.402239095024122,0.013939722784613195,False,0,False,False,-69.30040834491909,-68.92967487812065,,,1,11,0.91,,,,,0,0,1490,1490,,False,,
2026-03-07T16:10:42,470.876,9.487502068999959,EVENT,DROP,[DROP] ARM_WAIT alt=-69.30 acc_med=9.403137774168792 dalt_med=0.014 baseline=-69.30 max_alt=-68.93,,,,,,,,,,,,,,,,,,,,,,,,,,,,,,,,,,,,
2026-03-07T16:10:42,470.876,9.487502068999959,ROW,DROP,arm_wait,-69.3025122537539,0.56,-0.55,9.39,9.422749068079868,7.0,10.25,-68.6875,3.8125,4.3125,3.6875,ARM_WAIT,9.403137774168792,0.013939722784613195,False,0,False,False,-69.30040834491909,-68.92967487812065,,,1,11,0.91,,,,,0,0,1490,1490,,False,,
2026-03-07T16:10:42,471.031,9.643504633999953,EVENT,DROP,[DROP] ARM_WAIT alt=-69.34 acc_med=9.402239095024122 dalt_med=0.014 baseline=-69.30 max_alt=-68.93,,,,,,,,,,,,,,,,,,,,,,,,,,,,,,,,,,,,
2026-03-07T16:10:42,471.031,9.643504633999953,ROW,DROP,arm_wait,-69.34433215211173,0.6,-0.71,9.31,9.356292000573731,5.875,9.25,-68.25,3.9375,4.1875,3.8125,ARM_WAIT,9.402239095024122,0.013939722784613195,False,0,False,False,-69.30040834491909,-68.92967487812065,,,1,11,0.91,,,,,0,0,1490,1490,,False,,
2026-03-07T16:10:42,471.182,9.798287547999962,EVENT,DROP,[DROP] ARM_WAIT alt=-69.25 acc_med=9.402239095024122 dalt_med=0.014 baseline=-69.30 max_alt=-68.93,,,,,,,,,,,,,,,,,,,,,,,,,,,,,,,,,,,,
2026-03-07T16:10:42,471.183,9.798287547999962,ROW,DROP,arm_wait,-69.24697948465277,0.6900000000000001,-0.56,9.46,9.501647225613041,7.0,9.25,-68.25,3.875,4.375,3.8125,ARM_WAIT,9.402239095024122,0.013939722784613195,False,0,False,False,-69.30040834491909,-68.92967487812065,,,1,11,0.91,,,,,0,0,1490,1490,,False,,
2026-03-07T16:10:42,471.334,9.94972292,EVENT,DROP,[DROP] ARM_WAIT alt=-69.36 acc_med=9.402239095024122 dalt_med=0.014 baseline=-69.30 max_alt=-68.93,,,,,,,,,,,,,,,,,,,,,,,,,,,,,,,,,,,,
2026-03-07T16:10:42,471.335,9.94972292,ROW,DROP,arm_wait,-69.35850033420051,0.51,-0.79,9.26,9.30762053373471,6.875,9.25,-75.875,4.0,4.0,3.875,ARM_WAIT,9.402239095024122,0.013939722784613195,False,0,False,False,-69.30040834491909,-68.92967487812065,,,1,11,0.91,,,,,0,0,1490,1490,,False,,
2026-03-07T16:10:42,471.511,10.126411002999987,EVENT,DROP,[DROP] ARM_WAIT alt=-69.36 acc_med=9.402239095024122 dalt_med=0.000 baseline=-69.30 max_alt=-68.93,,,,,,,,,,,,,,,,,,,,,,,,,,,,,,,,,,,,
2026-03-07T16:10:42,471.512,10.126411002999987,ROW,DROP,arm_wait,-69.35827208234258,0.59,-0.62,9.44,9.478718267782833,6.5625,10.75,-67.5625,3.75,4.0625,3.875,ARM_WAIT,9.402239095024122,0.00022825185793351466,False,0,False,False,-69.30040834491909,-68.92967487812065,,,1,11,0.91,,,,,0,0,1490,1490,,False,,
2026-03-07T16:10:42,471.663,10.279435925999962,EVENT,DROP,[DROP] ARM_WAIT alt=-69.37 acc_med=9.402239095024122 dalt_med=-0.014 baseline=-69.30 max_alt=-68.93,,,,,,,,,,,,,,,,,,,,,,,,,,,,,,,,,,,,
2026-03-07T16:10:42,471.663,10.279435925999962,ROW,DROP,arm_wait,-69.37244035962529,0.36,-0.54,9.09,9.113138866493806,5.75,10.375,-67.875,3.8125,3.8125,3.625,ARM_WAIT,9.402239095024122,-0.014168277282706754,False,0,False,False,-69.30040834491909,-68.92967487812065,,,1,11,0.91,,,,,0,0,1490,1490,,False,,
2026-03-07T16:10:43,471.819,10.43060363799998,EVENT,DROP,[DROP] ARM_WAIT alt=-69.39 acc_med=9.403137774168792 dalt_med=-0.014 baseline=-69.30 max_alt=-68.93,,,,,,,,,,,,,,,,,,,,,,,,,,,,,,,,,,,,
2026-03-07T16:10:43,471.820,10.43060363799998,ROW,DROP,arm_wait,-69.38638036710586,0.66,-0.68,9.49,9.537195604578947,7.25,10.375,-67.875,3.9375,4.125,3.875,ARM_WAIT,9.403137774168792,-0.01394000748057067,False,0,False,False,-69.30040834491909,-68.92967487812065,,,1,11,0.91,,,,,0,0,1490,1490,,False,,
2026-03-07T16:10:43,471.975,10.586831230999962,EVENT,DROP,[DROP] ARM_WAIT alt=-69.19 acc_med=9.422749068079868 dalt_med=-0.014 baseline=-69.30 max_alt=-68.93,,,,,,,,,,,,,,,,,,,,,,,,,,,,,,,,,,,,
2026-03-07T16:10:43,471.976,10.586831230999962,ROW,DROP,arm_wait,-69.1912186291093,0.62,-0.54,9.43,9.465775192766834,6.5625,10.375,-68.75,3.9375,4.1875,3.8125,ARM_WAIT,9.422749068079868,-0.01394000748057067,False,0,False,False,-69.30040834491909,-68.92967487812065,30.37496716666667,130.9595965,1,11,0.91,,,,,0,0,1490,1490,,False,,
2026-03-07T16:10:43,472.126,10.743407890999947,EVENT,DROP,[DROP] ARM_WAIT alt=-69.16 acc_med=9.356292000573731 dalt_med=0.000 baseline=-69.30 max_alt=-68.93,,,,,,,,,,,,,,,,,,,,,,,,,,,,,,,,,,,,
2026-03-07T16:10:43,472.126,10.743407890999947,ROW,DROP,arm_wait,-69.16333809363779,0.48,-0.59,9.3,9.331050316014807,6.6875,8.875,-67.875,,,,ARM_WAIT,9.356292000573731,0.00022825185793351466,False,0,False,False,-69.30040834491909,-68.92967487812065,30.37496716666667,130.9595965,1,11,0.91,,,,,0,0,1490,1490,,False,,
2026-03-07T16:10:43,472.279,10.893043475999946,EVENT,DROP,[DROP] ARM_WAIT alt=-69.02 acc_med=9.38288868099798 dalt_med=0.000 baseline=-69.30 max_alt=-68.93,,,,,,,,,,,,,,,,,,,,,,,,,,,,,,,,,,,,
2026-03-07T16:10:43,472.279,10.893043475999946,ROW,DROP,arm_wait,-69.02438271842955,0.55,-0.56,9.35,9.38288868099798,5.0625,9.1875,-68.6875,4.375,4.1875,3.5,ARM_WAIT,9.38288868099798,0.00022825185793351466,False,0,False,False,-69.30040834491909,-68.92967487812065,30.37496716666667,130.9595965,1,11,0.91,,,,,0,0,1490,1490,,False,,
2026-03-07T16:10:43,472.430,11.046128478999947,EVENT,DROP,[DROP] ARM_WAIT alt=-69.22 acc_med=9.38288868099798 dalt_med=0.000 baseline=-69.30 max_alt=-68.93,,,,,,,,,,,,,,,,,,,,,,,,,,,,,,,,,,,,
2026-03-07T16:10:43,472.431,11.046128478999947,ROW,DROP,arm_wait,-69.21955064025293,0.67,-0.5700000000000001,9.3,9.341509513991836,5.375,8.75,-67.1875,4.75,4.4375,3.125,ARM_WAIT,9.38288868099798,0.00022825185793351466,False,0,False,False,-69.30040834491909,-68.92967487812065,30.37496716666667,130.9595965,1,11,0.91,,,,,0,0,1490,1490,,False,,
2026-03-07T16:10:43,472.611,11.220721244999993,EVENT,DROP,[DROP] ARM_WAIT alt=-69.34 acc_med=9.356292000573731 dalt_med=-0.014 baseline=-69.30 max_alt=-68.93,,,,,,,,,,,,,,,,,,,,,,,,,,,,,,,,,,,,
2026-03-07T16:10:43,472.611,11.220721244999993,ROW,DROP,arm_wait,-69.34433215211173,0.6,-0.54,9.31,9.344929106205141,6.375,8.0625,-67.6875,5.25,4.375,3.125,ARM_WAIT,9.356292000573731,-0.01394000748057067,False,0,False,False,-69.30040834491909,-68.92967487812065,30.37496716666667,130.9595965,1,11,0.91,,,,,0,0,1490,1490,,False,,
2026-03-07T16:10:44,472.762,11.377896974999999,EVENT,DROP,[DROP] ARM_WAIT alt=-69.16 acc_med=9.38288868099798 dalt_med=0.028 baseline=-69.30 max_alt=-68.93,,,,,,,,,,,,,,,,,,,,,,,,,,,,,,,,,,,,
2026-03-07T16:10:44,472.762,11.377896974999999,ROW,DROP,arm_wait,-69.16356386363171,0.68,-0.35000000000000003,9.4,9.431060385767871,5.75,8.5625,-66.0625,5.25,4.8125,2.9375,ARM_WAIT,9.38288868099798,0.02788053547151037,False,0,False,False,-69.30040834491909,-68.92967487812065,30.37496716666667,130.9595965,1,11,0.91,,,,,0,0,1490,1490,,False,,
2026-03-07T16:10:44,472.912,11.528995529999975,EVENT,DROP,[DROP] ARM_WAIT alt=-69.22 acc_med=9.344929106205141 dalt_med=0.028 baseline=-69.30 max_alt=-68.93,,,,,,,,,,,,,,,,,,,,,,,,,,,,,,,,,,,,
2026-03-07T16:10:44,472.913,11.528995529999975,ROW,DROP,arm_wait,-69.2193253153899,0.65,-0.53,9.14,9.178398553124614,4.875,7.75,-68.6875,5.75,4.75,2.875,ARM_WAIT,9.344929106205141,0.02788053547151037,False,0,False,False,-69.30040834491909,-68.92967487812065,30.37496716666667,130.9595965,1,11,0.91,,,,,0,0,1490,1490,,False,,
2026-03-07T16:10:44,473.063,11.679662404999988,EVENT,DROP,[DROP] ARM_WAIT alt=-69.19 acc_med=9.38288868099798 dalt_med=0.028 baseline=-69.30 max_alt=-68.93,,,,,,,,,,,,,,,,,,,,,,,,,,,,,,,,,,,,
2026-03-07T16:10:44,473.063,11.679662404999988,ROW,DROP,arm_wait,-69.19166972395641,0.45,-0.51,9.370000000000001,9.39465273440163,4.75,8.0,-67.0625,6.0625,4.875,3.0,ARM_WAIT,9.38288868099798,0.027655591433486393,False,0,False,False,-69.30040834491909,-68.92967487812065,30.37496716666667,130.9595965,1,11,0.91,,,,,0,0,1490,1490,,False,,
2026-03-07T16:10:44,473.222,11.830292716999963,EVENT,DROP,[DROP] ARM_WAIT alt=-69.25 acc_med=9.344929106205141 dalt_med=-0.054 baseline=-69.30 max_alt=-68.93,,,,,,,,,,,,,,,,,,,,,,,,,,,,,,,,,,,,
2026-03-07T16:10:44,473.222,11.830292716999963,ROW,DROP,arm_wait,-69.24519041436277,0.6900000000000001,-0.47000000000000003,9.14,9.17804990180376,6.25,7.5625,-67.0625,5.9375,5.25,2.3125,ARM_WAIT,9.344929106205141,-0.05352069040635854,False,0,False,False,-69.30040834491909,-68.92967487812065,30.37496716666667,130.9595965,1,11,0.91,,,,,0,0,1490,1490,,False,,
2026-03-07T16:10:44,473.418,11.989413912999964,EVENT,DROP,[DROP] ARM_WAIT alt=-69.19 acc_med=9.38288868099798 dalt_med=-0.054 baseline=-69.30 max_alt=-68.93,,,,,,,,,,,,,,,,,,,,,,,,,,,,,,,,,,,,
2026-03-07T16:10:44,473.419,11.989413912999964,ROW,DROP,arm_wait,-69.18920443617574,1.28,-0.32,9.620000000000001,9.71005664247125,6.25,6.5,-66.875,5.0625,6.25,1.9375,ARM_WAIT,9.38288868099798,-0.05352069040635854,False,0,False,False,-69.30040834491909,-68.92967487812065,30.37496716666667,130.9595965,1,11,0.91,,,,,0,0,1490,1490,,False,,
2026-03-07T16:10:44,473.597,12.210318460999986,EVENT,DROP,[DROP] ARM_WAIT alt=-68.93 acc_med=9.344929106205141 dalt_med=0.028 baseline=-69.30 max_alt=-68.93,,,,,,,,,,,,,,,,,,,,,,,,,,,,,,,,,,,,
2026-03-07T16:10:44,473.597,12.210318460999986,ROW,DROP,arm_wait,-68.92858979241467,0.77,-0.15,8.6,8.635704950957969,3.375,6.6875,-66.1875,5.0625,6.1875,0.875,ARM_WAIT,9.344929106205141,0.027655591433486393,False,0,False,False,-69.30040834491909,-68.92858979241467,30.37496716666667,130.9595965,1,11,0.91,,,,,0,0,1490,1490,,False,,
2026-03-07T16:10:44,473.749,12.365241220999962,EVENT,DROP,[DROP] ARM_WAIT alt=-69.34 acc_med=9.344929106205141 dalt_med=0.028 baseline=-69.30 max_alt=-68.93,,,,,,,,,,,,,,,,,,,,,,,,,,,,,,,,,,,,
2026-03-07T16:10:44,473.749,12.365241220999962,ROW,DROP,arm_wait,-69.34277438256338,0.91,-0.41000000000000003,9.55,9.60201541344316,3.75,7.375,-65.5,5.1875,5.875,2.375,ARM_WAIT,9.344929106205141,0.027655591433486393,False,0,False,False,-69.30040834491909,-68.92858979241467,30.37496716666667,130.9595965,1,11,0.91,,,,,0,0,1490,1490,,False,,
2026-03-07T16:10:45,473.899,12.515953029999991,EVENT,DROP,[DROP] ARM_WAIT alt=-69.30 acc_med=9.38288868099798 dalt_med=0.028 baseline=-69.30 max_alt=-68.93,,,,,,,,,,,,,,,,,,,,,,,,,,,,,,,,,,,,
2026-03-07T16:10:45,473.900,12.515953029999991,ROW,DROP,arm_wait,-69.30072856861047,1.36,-0.29,9.65,9.749676917723992,4.1875,7.375,-65.25,4.25,7.3125,2.4375,ARM_WAIT,9.38288868099798,0.027655591433486393,False,0,False,False,-69.30040834491909,-68.92858979241467,30.37496716666667,130.9595965,1,11,0.91,,,,,0,0,1490,1490,,False,,
2026-03-07T16:10:45,474.050,12.666793631999951,EVENT,DROP,[DROP] ARM_WAIT alt=-69.26 acc_med=9.344929106205141 dalt_med=0.041 baseline=-69.30 max_alt=-68.93,,,,,,,,,,,,,,,,,,,,,,,,,,,,,,,,,,,,
2026-03-07T16:10:45,474.051,12.666793631999951,ROW,DROP,arm_wait,-69.25957610468168,1.23,-0.61,8.97,9.074464171508971,1.875,7.6875,-64.1875,4.375,6.0625,2.25,ARM_WAIT,9.344929106205141,0.04115246392878191,False,0,False,False,-69.30040834491909,-68.92858979241467,30.37496716666667,130.9595965,1,11,0.91,,,,,0,0,1490,1490,,False,,
2026-03-07T16:10:45,474.207,12.818777112999953,EVENT,DROP,[DROP] ARM_WAIT alt=-69.30 acc_med=9.39465273440163 dalt_med=0.041 baseline=-69.30 max_alt=-68.93,,,,,,,,,,,,,,,,,,,,,,,,,,,,,,,,,,,,
2026-03-07T16:10:45,474.207,12.818777112999953,ROW,DROP,arm_wait,-69.30139853814562,1.12,-0.22,9.41,9.478971463191563,2.875,8.1875,-65.75,4.1875,6.6875,2.375,ARM_WAIT,9.39465273440163,0.04115246392878191,False,0,False,False,-69.30040834491909,-68.92858979241467,30.37496716666667,130.9595965,1,11,0.91,,,,,0,0,1490,1490,,False,,
2026-03-07T16:10:45,474.359,12.974290114999974,EVENT,DROP,[DROP] ARM_WAIT alt=-69.29 acc_med=9.431060385767871 dalt_med=0.041 baseline=-69.30 max_alt=-68.93,,,,,,,,,,,,,,,,,,,,,,,,,,,,,,,,,,,,
2026-03-07T16:10:45,474.359,12.974290114999974,ROW,DROP,arm_wait,-69.28723543274587,1.21,-0.37,9.370000000000001,9.455046271700631,2.75,8.5625,-63.6875,4.6875,6.875,2.0,ARM_WAIT,9.431060385767871,0.04115246392878191,False,0,False,False,-69.30040834491909,-68.92858979241467,30.37496716666667,130.9595965,1,11,0.91,,,,,0,0,1490,1490,,False,,
2026-03-07T16:10:45,474.539,13.149436736999974,EVENT,DROP,[DROP] ARM_WAIT alt=-69.44 acc_med=9.39465273440163 dalt_med=0.014 baseline=-69.30 max_alt=-68.93,,,,,,,,,,,,,,,,,,,,,,,,,,,,,,,,,,,,
2026-03-07T16:10:45,474.539,13.149436736999974,ROW,DROP,arm_wait,-69.4405819259916,0.9,-0.39,9.200000000000001,9.252140292926821,3.0,6.25,-64.5,5.25,6.25,1.9375,ARM_WAIT,9.39465273440163,0.014163105399745746,False,0,False,False,-69.30040834491909,-68.92858979241467,30.37496716666667,130.9595965,1,11,0.91,,,,,0,0,1490,1490,,False,,
2026-03-07T16:10:45,474.692,13.306095586999959,EVENT,DROP,[DROP] ARM_WAIT alt=-69.18 acc_med=9.39465273440163 dalt_med=0.014 baseline=-69.30 max_alt=-68.93,,,,,,,,,,,,,,,,,,,,,,,,,,,,,,,,,,,,
2026-03-07T16:10:45,474.693,13.306095586999959,ROW,DROP,arm_wait,-69.17570934618246,0.9,-0.24,9.23,9.27687986340235,3.0625,7.0625,-65.0,5.125,6.375,2.1875,ARM_WAIT,9.39465273440163,0.014163105399745746,False,0,False,False,-69.30040834491909,-68.92858979241467,30.37496716666667,130.9595965,1,11,0.91,,,,,0,0,1490,1490,,False,,
2026-03-07T16:10:46,474.846,13.459833925999988,EVENT,DROP,[DROP] ARM_WAIT alt=-69.44 acc_med=9.455046271700631 dalt_med=0.014 baseline=-69.30 max_alt=-68.93,,,,,,,,,,,,,,,,,,,,,,,,,,,,,,,,,,,,
2026-03-07T16:10:46,474.846,13.459833925999988,ROW,DROP,arm_wait,-69.44080548293046,1.1,-0.36,9.43,9.500763127244042,2.375,7.75,-64.5625,4.875,6.5625,2.4375,ARM_WAIT,9.455046271700631,0.014163105399745746,False,0,False,False,-69.30040834491909,-68.92858979241467,30.37496716666667,130.9595965,1,11,0.91,,,,,0,0,1490,1490,,False,,
2026-03-07T16:10:46,475.006,13.61336453599995,EVENT,DROP,[DROP] ARM_WAIT alt=-69.31 acc_med=9.455046271700631 dalt_med=0.014 baseline=-69.30 max_alt=-68.93,,,,,,,,,,,,,,,,,,,,,,,,,,,,,,,,,,,,
2026-03-07T16:10:46,475.008,13.61336453599995,ROW,DROP,arm_wait,-69.31309226372422,1.27,-0.29,9.19,9.281869423774502,1.5625,8.1875,-63.875,4.6875,7.5,1.75,ARM_WAIT,9.455046271700631,0.014163105399745746,False,0,False,False,-69.30040834491909,-68.92858979241467,30.37496866666667,130.95959783333333,1,11,0.91,,,,,0,0,1490,1490,,False,,
2026-03-07T16:10:46,475.158,13.774849562999975,EVENT,DROP,[DROP] ARM_WAIT alt=-68.92 acc_med=9.281869423774502 dalt_med=0.014 baseline=-69.30 max_alt=-68.92,,,,,,,,,,,,,,,,,,,,,,,,,,,,,,,,,,,,
2026-03-07T16:10:46,475.161,13.774849562999975,ROW,DROP,arm_wait,-68.92499082087696,1.1500000000000001,-0.46,9.15,9.233450059430657,1.375,7.0,-64.0625,5.125,7.25,1.875,ARM_WAIT,9.281869423774502,0.014163105399745746,False,0,False,False,-69.30040834491909,-68.92499082087696,30.37496866666667,130.95959783333333,1,11,0.91,,,,,0,0,1490,1490,,False,,
2026-03-07T16:10:46,475.310,13.927560997,EVENT,DROP,[DROP] ARM_WAIT alt=-69.39 acc_med=9.340460374092917 dalt_med=0.014 baseline=-69.30 max_alt=-68.92,,,,,,,,,,,,,,,,,,,,,,,,,,,,,,,,,,,,
2026-03-07T16:10:46,475.310,13.927560997,ROW,DROP,arm_wait,-69.38526512687854,1.29,-0.45,9.24,9.340460374092917,0.6875,7.0,-62.375,5.125,7.625,1.8125,ARM_WAIT,9.340460374092917,0.014163105399745746,False,0,False,False,-69.30040834491909,-68.92499082087696,30.37496866666667,130.95959783333333,1,11,0.91,,,,,0,0,1490,1490,,False,,
2026-03-07T16:10:46,475.461,14.07683811999999,EVENT,DROP,[DROP] ARM_WAIT alt=-69.13 acc_med=9.281869423774502 dalt_med=0.128 baseline=-69.30 max_alt=-68.92,,,,,,,,,,,,,,,,,,,,,,,,,,,,,,,,,,,,
2026-03-07T16:10:46,475.461,14.07683811999999,ROW,DROP,arm_wait,-69.13388676754063,0.89,-0.26,8.93,8.978006460233809,1.5625,6.5,-62.875,5.4375,7.4375,2.0625,ARM_WAIT,9.281869423774502,0.12771321920624246,False,0,False,False,-69.30040834491909,-68.92499082087696,30.37496866666667,130.95959783333333,1,11,0.91,,,,,0,0,1490,1490,,False,,
2026-03-07T16:10:46,475.641,14.251570593999986,EVENT,DROP,[DROP] ARM_WAIT alt=-69.26 acc_med=9.281869423774502 dalt_med=0.128 baseline=-69.30 max_alt=-68.92,,,,,,,,,,,,,,,,,,,,,,,,,,,,,,,,,,,,
2026-03-07T16:10:46,475.642,14.251570593999986,ROW,DROP,arm_wait,-69.25957610468168,0.91,-0.22,9.8,9.84461781888967,1.0625,7.375,-63.375,5.1875,7.625,3.3125,ARM_WAIT,9.281869423774502,0.12771321920624246,False,0,False,False,-69.30040834491909,-68.92499082087696,30.37496866666667,130.95959783333333,1,11,0.91,,,,,0,0,1490,1490,,False,,
2026-03-07T16:10:47,475.796,14.409092762,EVENT,DROP,[DROP] ARM_WAIT alt=-69.42 acc_med=9.340460374092917 dalt_med=-0.126 baseline=-69.30 max_alt=-68.92,,,,,,,,,,,,,,,,,,,,,,,,,,,,,,,,,,,,
2026-03-07T16:10:47,475.797,14.409092762,ROW,DROP,arm_wait,-69.42461962290994,1.29,-0.34,9.39,9.484292277233974,2.0,8.375,-63.1875,4.5,7.3125,2.6875,ARM_WAIT,9.340460374092917,-0.12568933714105412,False,0,False,False,-69.30040834491909,-68.92499082087696,30.37496866666667,130.95959783333333,1,11,0.91,,,,,0,0,1490,1490,,False,,
2026-03-07T16:10:47,475.950,14.564149043999976,EVENT,DROP,[DROP] ARM_WAIT alt=-69.15 acc_med=9.281869423774502 dalt_med=0.128 baseline=-69.30 max_alt=-68.92,,,,,,,,,,,,,,,,,,,,,,,,,,,,,,,,,,,,
2026-03-07T16:10:47,475.952,14.564149043999976,ROW,DROP,arm_wait,-69.14804882561991,1.26,-0.53,8.89,8.994476082574238,1.75,7.1875,-63.5625,4.125,6.8125,1.5625,ARM_WAIT,9.281869423774502,0.12771321920624246,False,0,False,False,-69.30040834491909,-68.92499082087696,30.37496866666667,130.95959783333333,1,11,0.91,,,,,0,0,1490,1490,,False,,
2026-03-07T16:10:47,476.109,14.71956611099995,EVENT,DROP,[DROP] ARM_WAIT alt=-69.20 acc_med=9.27687986340235 dalt_med=-0.056 baseline=-69.30 max_alt=-68.92,,,,,,,,,,,,,,,,,,,,,,,,,,,,,,,,,,,,
2026-03-07T16:10:47,476.109,14.71956611099995,ROW,DROP,arm_wait,-69.2035909755231,1.1,-0.45,8.92,8.99882770142867,1.6875,7.6875,-62.375,4.0625,6.625,2.0625,ARM_WAIT,9.27687986340235,-0.0555421499031894,False,0,False,False,-69.30040834491909,-68.92499082087696,30.37496866666667,130.95959783333333,1,11,0.91,,,,,0,0,1490,1490,,False,,
2026-03-07T16:10:47,476.261,14.876183138999977,EVENT,DROP,[DROP] ARM_WAIT alt=-69.33 acc_med=9.281869423774502 dalt_med=-0.126 baseline=-69.30 max_alt=-68.92,,,,,,,,,,,,,,,,,,,,,,,,,,,,,,,,,,,,
2026-03-07T16:10:47,476.261,14.876183138999977,ROW,DROP,arm_wait,-69.32928007069769,1.25,-0.43,9.22,9.314279360208175,1.1875,7.1875,-62.375,3.5625,7.0,3.1875,ARM_WAIT,9.281869423774502,-0.12568909517459304,False,0,False,False,-69.30040834491909,-68.92499082087696,30.37496866666667,130.95959783333333,1,11,0.91,,,,,0,0,1490,1490,,False,,
2026-03-07T16:10:47,476.411,15.028368968999985,EVENT,DROP,[DROP] ARM_WAIT alt=-69.40 acc_med=9.281869423774502 dalt_med=-0.067 baseline=-69.30 max_alt=-68.92,,,,,,,,,,,,,,,,,,,,,,,,,,,,,,,,,,,,
2026-03-07T16:10:47,476.412,15.028368968999985,ROW,DROP,arm_wait,-69.39673789081576,1.04,-0.66,9.19,9.272178816222215,0.375,9.25,-63.5625,2.6875,7.0,4.5625,ARM_WAIT,9.281869423774502,-0.06745782011806511,False,0,False,False,-69.30040834491909,-68.92499082087696,30.37496866666667,130.95959783333333,1,11,0.91,,,,,0,0,1490,1490,,False,,
2026-03-07T16:10:47,476.591,15.202020361999985,EVENT,DROP,[DROP] ARM_WAIT alt=-69.44 acc_med=9.281869423774502 dalt_med=-0.067 baseline=-69.30 max_alt=-68.92,,,,,,,,,,,,,,,,,,,,,,,,,,,,,,,,,,,,
2026-03-07T16:10:47,476.592,15.202020361999985,ROW,DROP,arm_wait,-69.43856046203578,1.29,-0.97,9.32,9.458720843750491,0.1875,10.0,-61.6875,0.875,7.75,6.125,ARM_WAIT,9.281869423774502,-0.06745782011806511,False,0,False,False,-69.30040834491909,-68.92499082087696,30.37496866666667,130.95959783333333,1,11,0.91,,,,,0,0,1490,1490,,False,,
2026-03-07T16:10:47,476.743,15.359185416999992,EVENT,DROP,[DROP] ARM_WAIT alt=-69.80 acc_med=9.314279360208175 dalt_med=-0.067 baseline=-69.30 max_alt=-68.92,,,,,,,,,,,,,,,,,,,,,,,,,,,,,,,,,,,,
2026-03-07T16:10:47,476.743,15.359185416999992,ROW,DROP,arm_wait,-69.80101597873018,1.17,-1.1500000000000001,9.25,9.394354687789896,0.1875,11.5,-64.0,359.6875,7.3125,7.6875,ARM_WAIT,9.314279360208175,-0.06745782011806511,False,0,False,False,-69.30040834491909,-68.92499082087696,30.37496866666667,130.95959783333333,1,11,0.91,,,,,0,0,1490,1490,,False,,
2026-03-07T16:10:48,476.904,15.510293200999968,EVENT,DROP,[DROP] ARM_WAIT alt=-69.23 acc_med=9.340460374092917 dalt_med=-0.056 baseline=-69.30 max_alt=-68.92,,,,,,,,,,,,,,,,,,,,,,,,,,,,,,,,,,,,
2026-03-07T16:10:48,476.905,15.510293200999968,ROW,DROP,arm_wait,-69.22944599039461,0.86,-1.49,9.620000000000001,9.772619914843718,1.375,11.25,-64.375,358.8125,5.875,10.0625,ARM_WAIT,9.340460374092917,-0.0555421499031894,False,0,False,False,-69.30040834491909,-68.92499082087696,30.374967333333334,130.95959916666666,1,11,0.91,,,,,0,0,1490,1490,,False,,
2026-03-07T16:10:48,477.056,15.671510621999971,EVENT,DROP,[DROP] ARM_WAIT alt=-69.33 acc_med=9.394354687789896 dalt_med=-0.067 baseline=-69.30 max_alt=-68.92,,,,,,,,,,,,,,,,,,,,,,,,,,,,,,,,,,,,
2026-03-07T16:10:48,477.056,15.671510621999971,ROW,DROP,arm_wait,-69.32703324645304,1.09,-1.95,9.84,10.090401379528963,0.0,10.75,-63.875,356.5,4.875,11.6875,ARM_WAIT,9.394354687789896,-0.06745782011806511,False,0,False,False,-69.30040834491909,-68.92499082087696,30.374967333333334,130.95959916666666,1,11,0.91,,,,,0,0,1490,1490,,False,,
2026-03-07T16:10:48,477.207,15.82350121899998,EVENT,DROP,[DROP] ARM_WAIT alt=-69.35 acc_med=9.458720843750491 dalt_med=-0.067 baseline=-69.30 max_alt=-68.92,,,,,,,,,,,,,,,,,,,,,,,,,,,,,,,,,,,,
2026-03-07T16:10:48,477.208,15.82350121899998,ROW,DROP,arm_wait,-69.35491515804851,1.28,-1.82,9.81,10.059169945875256,0.0,10.5625,-62.75,353.8125,4.5625,11.0625,ARM_WAIT,9.458720843750491,-0.06745782011806511,False,0,False,False,-69.30040834491909,-68.92499082087696,30.374967333333334,130.95959916666666,1,11,0.91,,,,,0,0,1490,1490,,False,,
2026-03-07T16:10:48,477.359,15.974849932999973,EVENT,DROP,[DROP] ARM_WAIT alt=-69.49 acc_med=9.458720843750491 dalt_med=-0.067 baseline=-69.30 max_alt=-68.92,,,,,,,,,,,,,,,,,,,,,,,,,,,,,,,,,,,,
2026-03-07T16:10:48,477.359,15.974849932999973,ROW,DROP,arm_wait,-69.49476539861774,1.22,-1.47,9.34,9.533357226077285,-1.375,9.875,-64.1875,352.125,4.5625,9.375,ARM_WAIT,9.458720843750491,-0.06745782011806511,False,0,False,False,-69.30040834491909,-68.92499082087696,30.374967333333334,130.95959916666666,1,11,0.91,,,,,0,0,1490,1490,,False,,
2026-03-07T16:10:48,477.538,16.14932698499996,EVENT,DROP,[DROP] ARM_WAIT alt=-69.09 acc_med=9.441493525920567 dalt_med=-0.042 baseline=-69.30 max_alt=-68.92,,,,,,,,,,,,,,,,,,,,,,,,,,,,,,,,,,,,
2026-03-07T16:10:48,477.541,16.14932698499996,ROW,DROP,arm_wait,-69.09003409875304,1.2,-1.33,9.27,9.441493525920567,-3.5625,8.1875,-62.1875,351.3125,5.0,7.875,ARM_WAIT,9.441493525920567,-0.041822571220023974,False,0,False,False,-69.30040834491909,-68.92499082087696,30.374967333333334,130.95959916666666,1,11,0.91,,,,,0,0,1490,1490,,False,,
2026-03-07T16:10:48,477.693,16.30764905999996,EVENT,DROP,[DROP] ARM_WAIT alt=-69.26 acc_med=9.444818685395713 dalt_med=-0.098 baseline=-69.30 max_alt=-68.92,,,,,,,,,,,,,,,,,,,,,,,,,,,,,,,,,,,,
2026-03-07T16:10:48,477.694,16.30764905999996,ROW,DROP,arm_wait,-69.25754755830991,0.97,-1.26,9.31,9.444818685395713,-6.375,7.5,-60.25,351.4375,5.125,7.5,ARM_WAIT,9.444818685395713,-0.0975872560584321,False,0,False,False,-69.30040834491909,-68.92499082087696,30.374967333333334,130.95959916666666,1,11,0.91,,,,,0,0,1490,1490,,False,,
2026-03-07T16:10:49,477.843,16.460494192,EVENT,DROP,[DROP] ARM_WAIT alt=-69.34 acc_med=9.458720843750491 dalt_med=-0.083 baseline=-69.30 max_alt=-68.92,,,,,,,,,,,,,,,,,,,,,,,,,,,,,,,,,,,,
2026-03-07T16:10:49,477.844,16.460494192,ROW,DROP,arm_wait,-69.3409742112278,1.08,-1.22,9.4,9.540167713410494,-6.6875,7.375,-59.0625,351.5625,5.1875,7.0625,ARM_WAIT,9.458720843750491,-0.08342665291789331,False,0,False,False,-69.30040834491909,-68.92499082087696,30.374967333333334,130.95959916666666,1,11,0.91,,,,,0,0,1490,1490,,False,,
2026-03-07T16:10:49,477.994,16.61053260799997,EVENT,DROP,[DROP] ARM_WAIT alt=-69.49 acc_med=9.458720843750491 dalt_med=-0.098 baseline=-69.30 max_alt=-68.92,,,,,,,,,,,,,,,,,,,,,,,,,,,,,,,,,,,,
2026-03-07T16:10:49,477.997,16.61053260799997,ROW,DROP,arm_wait,-69.49498493155261,0.44,-0.88,8.97,9.023796318623333,-7.0,8.0,-61.0,351.3125,4.3125,6.625,ARM_WAIT,9.458720843750491,-0.0975872560584321,False,0,False,False,-69.30040834491909,-68.92499082087696,30.374967333333334,130.95959916666666,1,10,0.93,,,,,0,0,1490,1490,,False,,
2026-03-07T16:10:49,478.158,16.76416924099999,EVENT,DROP,[DROP] ARM_WAIT alt=-69.27 acc_med=9.458720843750491 dalt_med=-0.083 baseline=-69.30 max_alt=-68.92,,,,,,,,,,,,,,,,,,,,,,,,,,,,,,,,,,,,
2026-03-07T16:10:49,478.159,16.76416924099999,ROW,DROP,arm_wait,-69.27170734624337,0.68,-1.07,9.31,9.395924648484575,-6.5,7.0,-60.875,350.25,3.625,5.6875,ARM_WAIT,9.458720843750491,-0.08342665291789331,False,0,False,False,-69.30040834491909,-68.92499082087696,30.374967333333334,130.95959916666666,1,10,0.93,,,,,0,0,1490,1490,,False,,
2026-03-07T16:10:49,478.311,16.925619816999983,EVENT,DROP,[DROP] ARM_WAIT alt=-69.10 acc_med=9.444818685395713 dalt_med=-0.083 baseline=-69.30 max_alt=-68.92,,,,,,,,,,,,,,,,,,,,,,,,,,,,,,,,,,,,
2026-03-07T16:10:49,478.312,16.925619816999983,ROW,DROP,arm_wait,-69.10441079110295,1.0,-0.52,9.21,9.278712195127081,-6.375,6.5,-59.1875,348.875,4.5,4.0,ARM_WAIT,9.444818685395713,-0.08342665291789331,False,0,False,False,-69.30040834491909,-68.92499082087696,30.374967333333334,130.95959916666666,1,10,0.93,,,,,0,0,1490,1490,,False,,
2026-03-07T16:10:49,478.462,17.078716652999958,EVENT,DROP,[DROP] ARM_WAIT alt=-69.34 acc_med=9.444818685395713 dalt_med=-0.083 baseline=-69.30 max_alt=-68.92,,,,,,,,,,,,,,,,,,,,,,,,,,,,,,,,,,,,
2026-03-07T16:10:49,478.462,17.078716652999958,ROW,DROP,arm_wait,-69.34163176939548,0.96,-0.62,9.09,9.161555544775133,-6.6875,6.6875,-58.375,348.5,5.125,3.375,ARM_WAIT,9.444818685395713,-0.08342665291789331,False,0,False,False,-69.30040834491909,-68.92499082087696,30.374967333333334,130.95959916666666,1,10,0.93,,,,,0,0,1490,1490,,False,,
2026-03-07T16:10:49,478.645,17.252694505999955,EVENT,DROP,[DROP] ARM_WAIT alt=-69.55 acc_med=9.441493525920567 dalt_med=-0.154 baseline=-69.30 max_alt=-68.92,,,,,,,,,,,,,,,,,,,,,,,,,,,,,,,,,,,,
2026-03-07T16:10:49,478.645,17.252694505999955,ROW,DROP,arm_wait,-69.55096826689932,1.07,-0.41000000000000003,9.24,9.310778699979933,-8.875,7.1875,-56.6875,348.125,5.75,2.0,ARM_WAIT,9.441493525920567,-0.15401072032480556,False,0,False,False,-69.30040834491909,-68.92499082087696,30.374967333333334,130.95959916666666,1,10,0.93,,,,,0,0,1490,1490,,False,,
2026-03-07T16:10:50,478.799,17.411924744999965,EVENT,DROP,[DROP] ARM_WAIT alt=-69.23 acc_med=9.395924648484575 dalt_med=-0.083 baseline=-69.30 max_alt=-68.92,,,,,,,,,,,,,,,,,,,,,,,,,,,,,,,,,,,,
2026-03-07T16:10:50,478.800,17.411924744999965,ROW,DROP,arm_wait,-69.23010083259655,1.11,-0.26,9.040000000000001,9.111602493524398,-8.1875,7.6875,-56.25,347.6875,5.625,1.375,ARM_WAIT,9.395924648484575,-0.08342665291789331,False,0,False,False,-69.30040834491909,-68.92499082087696,30.374967333333334,130.95959916666666,1,10,0.93,,,,,0,0,1490,1490,,False,,
2026-03-07T16:10:50,478.952,17.567390439999997,EVENT,DROP,[DROP] ARM_WAIT alt=-69.10 acc_med=9.310778699979933 dalt_med=0.126 baseline=-69.30 max_alt=-68.92,,,,,,,,,,,,,,,,,,,,,,,,,,,,,,,,,,,,
2026-03-07T16:10:50,478.953,17.567390439999997,ROW,DROP,arm_wait,-69.10441079110295,1.19,0.1,8.96,9.039231161996025,-9.5625,5.5,-55.0625,347.375,6.1875,0.0625,ARM_WAIT,9.310778699979933,0.12569004149359841,False,0,False,False,-69.30040834491909,-68.92499082087696,30.374967333333334,130.95959916666666,1,10,0.93,,,,,0,0,1490,1490,,False,,
2026-03-07T16:10:50,479.105,17.719682243999955,EVENT,DROP,[DROP] ARM_WAIT alt=-69.10 acc_med=9.278712195127081 dalt_med=0.126 baseline=-69.30 max_alt=-68.92,,,,,,,,,,,,,,,,,,,,,,,,,,,,,,,,,,,,
2026-03-07T16:10:50,479.105,17.719682243999955,ROW,DROP,arm_wait,-69.10441079110295,1.28,-0.07,9.01,9.100736233953821,-9.75,6.0625,-54.25,347.75,6.3125,0.25,ARM_WAIT,9.278712195127081,0.12569004149359841,False,0,False,False,-69.30040834491909,-68.92499082087696,30.374967333333334,130.95959916666666,1,10,0.93,,,,,0,0,1490,1490,,False,,
2026-03-07T16:10:50,479.263,17.872370926999963,EVENT,DROP,[DROP] ARM_WAIT alt=-69.22 acc_med=9.190875910379816 dalt_med=0.000 baseline=-69.30 max_alt=-68.92,,,,,,,,,,,,,,,,,,,,,,,,,,,,,,,,,,,,
2026-03-07T16:10:50,479.263,17.872370926999963,ROW,DROP,arm_wait,-69.21637575636692,1.48,-0.13,9.07,9.190875910379816,-8.75,5.0,-54.0,347.75,6.9375,0.625,ARM_WAIT,9.190875910379816,0.0,False,0,False,False,-69.30040834491909,-68.92499082087696,30.374967333333334,130.95959916666666,1,10,0.93,,,,,0,0,1490,1490,,False,,
2026-03-07T16:10:50,479.415,18.03015049999999,EVENT,DROP,[DROP] ARM_WAIT alt=-69.26 acc_med=9.190875910379816 dalt_med=-0.039 baseline=-69.30 max_alt=-68.92,,,,,,,,,,,,,,,,,,,,,,,,,,,,,,,,,,,,
2026-03-07T16:10:50,479.416,18.03015049999999,ROW,DROP,arm_wait,-69.25572683286751,1.22,-0.19,9.17,9.25275094228738,-9.5,5.75,-53.1875,348.375,7.0,1.25,ARM_WAIT,9.190875910379816,-0.03935107650059422,False,0,False,False,-69.30040834491909,-68.92499082087696,30.374967333333334,130.95959916666666,1,10,0.93,,,,,0,0,1490,1490,,False,,
2026-03-07T16:10:50,479.589,18.205488446999993,EVENT,DROP,[DROP] ARM_WAIT alt=-69.30 acc_med=9.164824057230994 dalt_med=-0.039 baseline=-69.30 max_alt=-68.92,,,,,,,,,,,,,,,,,,,,,,,,,,,,,,,,,,,,
2026-03-07T16:10:50,479.589,18.205488446999993,ROW,DROP,arm_wait,-69.29958985411263,1.04,-0.32,9.1,9.164824057230994,-10.0,6.5625,-53.5,-1698.8125,7.25,1.8125,ARM_WAIT,9.164824057230994,-0.03935107650059422,False,0,False,False,-69.30040834491909,-68.92499082087696,30.374967333333334,130.95959916666666,1,10,0.93,,,,,0,0,1490,1490,,False,,
2026-03-07T16:10:50,479.738,18.356309400999976,EVENT,DROP,[DROP] ARM_WAIT alt=-69.43 acc_med=9.190875910379816 dalt_med=-0.039 baseline=-69.30 max_alt=-68.92,,,,,,,,,,,,,,,,,,,,,,,,,,,,,,,,,,,,
2026-03-07T16:10:50,479.739,18.356309400999976,ROW,DROP,arm_wait,-69.42506025091126,1.43,-0.47000000000000003,9.19,9.312459395884634,-10.0625,5.6875,-53.75,349.5,7.9375,2.4375,ARM_WAIT,9.190875910379816,-0.03935107650059422,False,0,False,False,-69.30040834491909,-68.92499082087696,30.374967333333334,130.95959916666666,1,10,0.93,,,,,0,0,1490,1490,,False,,
2026-03-07T16:10:51,479.888,18.505557355999997,EVENT,DROP,[DROP] ARM_WAIT alt=-69.33 acc_med=9.190875910379816 dalt_med=-0.039 baseline=-69.30 max_alt=-68.92,,,,,,,,,,,,,,,,,,,,,,,,,,,,,,,,,,,,
2026-03-07T16:10:51,479.888,18.505557355999997,ROW,DROP,arm_wait,-69.32790774213011,1.27,-0.5,9.14,9.241347304370722,-10.5,6.1875,-53.0,349.75,7.75,3.3125,ARM_WAIT,9.190875910379816,-0.03935107650059422,False,0,False,False,-69.30040834491909,-68.92499082087696,30.374967333333334,130.95959916666666,1,10,0.93,,,,,0,0,1490,1490,,False,,
2026-03-07T16:10:51,480.037,18.655118898999945,EVENT,DROP,[DROP] ARM_WAIT alt=-69.61 acc_med=9.190875910379816 dalt_med=-0.044 baseline=-69.30 max_alt=-68.92,,,,,,,,,,,,,,,,,,,,,,,,,,,,,,,,,,,,
2026-03-07T16:10:51,480.037,18.655118898999945,ROW,DROP,arm_wait,-69.60673268003484,1.08,-0.88,9.31,9.413654975619194,-10.5625,6.6875,-53.5,350.0,7.0625,4.8125,ARM_WAIT,9.190875910379816,-0.043863021245115874,False,0,False,False,-69.30040834491909,-68.92499082087696,30.374967333333334,130.95959916666666,1,10,0.97,,,,,0,0,1490,1490,,False,,
2026-03-07T16:10:51,480.196,18.80413981099997,EVENT,DROP,[DROP] ARM_WAIT alt=-69.52 acc_med=9.190875910379816 dalt_med=-0.044 baseline=-69.30 max_alt=-68.92,,,,,,,,,,,,,,,,,,,,,,,,,,,,,,,,,,,,
